[
  {
    "experimentId": "exp-032-montpellier-light-sensors",
    "studentName": "Camille Fabre",
    "sensorType": "Intensité lumineuse",
    "value": 15000,
    "unit": "lux",
    "timestamp": "2024-01-08T12:00:00.000Z",
    "location": {
      "latitude": 43.611,
      "longitude": 3.8767
    },
    "notes": "Plein soleil - place de la Comédie"
  },
  {
    "experimentId": "exp-032-montpellier-light-sensors",
    "studentName": "Rayan Mansouri",
    "sensorType": "Intensité lumineuse",
    "value": 250,
    "unit": "lux",
    "timestamp": "2024-01-08T20:00:00.000Z",
    "location": {
      "latitude": 43.611,
      "longitude": 3.8767
    },
    "notes": "Éclairage public nocturne"
  },
  {
    "experimentId": "exp-046-plovdiv-cultural-sensors",
    "studentName": "Emma Girard",
    "sensorType": "NO2",
    "value": 39.7,
    "unit": "μg/m³",
    "timestamp": "2024-01-15T07:51:00Z",
    "location": {
      "latitude": 42.1354,
      "longitude": 24.7453
    },
    "notes": "Dioxyde d'azote"
  },
  {
    "experimentId": "exp-029-nice-seismic-network",
    "studentName": "Alexandre Rossi",
    "sensorType": "Accélération X",
    "value": 0.02,
    "unit": "m/s²",
    "timestamp": "2024-01-15T08:00:00.000Z",
    "location": {
      "latitude": 43.7102,
      "longitude": 7.262
    },
    "notes": "Vibrations de fond"
  },
  {
    "experimentId": "exp-029-nice-seismic-network",
    "studentName": "Fatima Bouali",
    "sensorType": "Accélération Y",
    "value": 0.01,
    "unit": "m/s²",
    "timestamp": "2024-01-15T08:00:00.000Z",
    "location": {
      "latitude": 43.7102,
      "longitude": 7.262
    },
    "notes": "Vibrations de fond"
  },
  {
    "experimentId": "exp-029-nice-seismic-network",
    "studentName": "Pierre Moreau",
    "sensorType": "Accélération Z",
    "value": 0.03,
    "unit": "m/s²",
    "timestamp": "2024-01-15T08:00:00.000Z",
    "location": {
      "latitude": 43.7102,
      "longitude": 7.262
    },
    "notes": "Axe vertical"
  },
  {
    "experimentId": "exp-033-nantes-soil-moisture",
    "studentName": "Hugo Blanc",
    "sensorType": "Temperature",
    "value": 4.1,
    "unit": "°C",
    "timestamp": "2024-01-15T09:38:00Z",
    "location": {
      "latitude": 47.2184,
      "longitude": -1.5536
    },
    "notes": "Mesure matinale"
  },
  {
    "experimentId": "exp-001-aix-city-detective",
    "studentName": "Marie Dubois",
    "sensorType": "Air Quality Index",
    "value": 133.0,
    "unit": "AQI",
    "timestamp": "2024-01-15T10:47:00Z",
    "location": {
      "latitude": 43.5263,
      "longitude": 5.4454
    },
    "notes": "Pollution modérée"
  },
  {
    "experimentId": "exp-001-aix-city-detective",
    "studentName": "Lucas Roux",
    "sensorType": "Soil Moisture",
    "value": 47.5,
    "unit": "%",
    "timestamp": "2024-01-15T12:13:00Z",
    "location": {
      "latitude": 43.5263,
      "longitude": 5.4454
    },
    "notes": "Conditions optimales"
  },
  {
    "experimentId": "exp-017-aix-energy-perspective",
    "studentName": "Sophie Moreau",
    "sensorType": "Temperature",
    "value": 1.0,
    "unit": "°C",
    "timestamp": "2024-01-15T12:22:00Z",
    "location": {
      "latitude": 43.5155,
      "longitude": 5.4425
    },
    "notes": "Mesure matinale"
  },
  {
    "experimentId": "exp-054-vienna-heritage-sensors",
    "studentName": "Sophie Moreau",
    "sensorType": "CO2",
    "value": 659.0,
    "unit": "ppm",
    "timestamp": "2024-01-15T12:32:00Z",
    "location": {
      "latitude": 48.2082,
      "longitude": 16.3738
    },
    "notes": "Pic urbain"
  },
  {
    "experimentId": "exp-001-aix-city-detective",
    "studentName": "Camille Petit",
    "sensorType": "Temperature",
    "value": 3.2,
    "unit": "°C",
    "timestamp": "2024-01-15T19:53:00Z",
    "location": {
      "latitude": 43.5263,
      "longitude": 5.4454
    },
    "notes": "Pic de chaleur"
  },
  {
    "experimentId": "exp-038-ghent-noise-sensors",
    "studentName": "Chloé Simon",
    "sensorType": "Energy Consumption",
    "value": 30.2,
    "unit": "kWh",
    "timestamp": "2024-01-16T06:02:00Z",
    "location": {
      "latitude": 51.0543,
      "longitude": 3.7174
    },
    "notes": "Consommation élevée"
  },
  {
    "experimentId": "exp-004-larochelle-whisper-walls",
    "studentName": "Camille Petit",
    "sensorType": "PM2.5",
    "value": 18.4,
    "unit": "μg/m³",
    "timestamp": "2024-01-16T07:20:00Z",
    "location": {
      "latitude": 46.1591,
      "longitude": -1.152
    },
    "notes": "Conditions venteuses"
  },
  {
    "experimentId": "exp-024-sofia-plants-city",
    "studentName": "Manon Robert",
    "sensorType": "Air Quality Index",
    "value": 55.0,
    "unit": "AQI",
    "timestamp": "2024-01-16T08:04:00Z",
    "location": {
      "latitude": 42.7105,
      "longitude": 23.3238
    },
    "notes": "Air excellent"
  },
  {
    "experimentId": "exp-041-firenze-traffic-sensors",
    "studentName": "Chiara Romano",
    "sensorType": "NO2",
    "value": 30.0,
    "unit": "μg/m³",
    "timestamp": "2024-01-16T14:00:00Z",
    "location": {
      "latitude": 43.7696,
      "longitude": 11.2558
    },
    "notes": "Pic de trafic"
  },
  {
    "experimentId": "exp-020-larochelle-chatbot",
    "studentName": "Pierre Martin",
    "sensorType": "Soil Moisture",
    "value": 25.8,
    "unit": "%",
    "timestamp": "2024-01-16T14:26:00Z",
    "location": {
      "latitude": 46.1574,
      "longitude": -1.1506
    },
    "notes": "Sol sec"
  },
  {
    "experimentId": "exp-033-nantes-soil-moisture",
    "studentName": "Julien Bernard",
    "sensorType": "Light",
    "value": 29943.0,
    "unit": "lux",
    "timestamp": "2024-01-16T14:46:00Z",
    "location": {
      "latitude": 47.2184,
      "longitude": -1.5536
    },
    "notes": "Plein soleil"
  },
  {
    "experimentId": "exp-045-varna-beach-sensors",
    "studentName": "Camille Petit",
    "sensorType": "Pressure",
    "value": 1024.9,
    "unit": "hPa",
    "timestamp": "2024-01-16T15:32:00Z",
    "location": {
      "latitude": 43.2141,
      "longitude": 27.9147
    },
    "notes": "Pression stable"
  },
  {
    "experimentId": "exp-048-thessaloniki-air-quality",
    "studentName": "Claire Rousseau",
    "sensorType": "Water Temperature",
    "value": 8.2,
    "unit": "°C",
    "timestamp": "2024-01-16T16:09:00Z",
    "location": {
      "latitude": 40.6401,
      "longitude": 22.9444
    },
    "notes": "Conditions normales"
  },
  {
    "experimentId": "exp-055-stockholm-smart-waste",
    "studentName": "Marie Dubois",
    "sensorType": "NO2",
    "value": 22.2,
    "unit": "μg/m³",
    "timestamp": "2024-01-16T18:35:00Z",
    "location": {
      "latitude": 59.3293,
      "longitude": 18.0686
    },
    "notes": "Conditions normales"
  },
  {
    "experimentId": "exp-002-marseille-data-context",
    "studentName": "Marie Dubois",
    "sensorType": "UV Index",
    "value": 1.8,
    "unit": "index",
    "timestamp": "2024-01-16T19:20:00Z",
    "location": {
      "latitude": 43.2965,
      "longitude": 5.3698
    },
    "notes": "Conditions normales"
  },
  {
    "experimentId": "exp-027-toulouse-humidity-monitoring",
    "studentName": "Hugo Blanc",
    "sensorType": "Vibration",
    "value": 2.55,
    "unit": "mm/s",
    "timestamp": "2024-01-16T19:42:00Z",
    "location": {
      "latitude": 43.6047,
      "longitude": 1.4442
    },
    "notes": "Activité sismique"
  },
  {
    "experimentId": "exp-032-montpellier-light-sensors",
    "studentName": "Emma Girard",
    "sensorType": "PM2.5",
    "value": 20.9,
    "unit": "μg/m³",
    "timestamp": "2024-01-16T19:52:00Z",
    "location": {
      "latitude": 43.611,
      "longitude": 3.8767
    },
    "notes": "Particules fines"
  },
  {
    "experimentId": "exp-050-lisbon-waste-sensors",
    "studentName": "Marie Dubois",
    "sensorType": "Light",
    "value": 1137.0,
    "unit": "lux",
    "timestamp": "2024-01-16T19:58:00Z",
    "location": {
      "latitude": 38.7223,
      "longitude": -9.1393
    },
    "notes": "Conditions nuageuses"
  },
  {
    "experimentId": "exp-039-roma-dust-sensors",
    "studentName": "Chiara Romano",
    "sensorType": "NO2",
    "value": 18.5,
    "unit": "μg/m³",
    "timestamp": "2024-01-17T09:19:00Z",
    "location": {
      "latitude": 41.9028,
      "longitude": 12.4964
    },
    "notes": "Conditions normales"
  },
  {
    "experimentId": "exp-038-ghent-noise-sensors",
    "studentName": "Léa Fournier",
    "sensorType": "Water Temperature",
    "value": 20.4,
    "unit": "°C",
    "timestamp": "2024-01-17T10:31:00Z",
    "location": {
      "latitude": 51.0543,
      "longitude": 3.7174
    },
    "notes": "Température eau"
  },
  {
    "experimentId": "exp-037-antwerp-air-sensors",
    "studentName": "Chloé Simon",
    "sensorType": "PM2.5",
    "value": 46.4,
    "unit": "μg/m³",
    "timestamp": "2024-01-17T13:39:00Z",
    "location": {
      "latitude": 51.2194,
      "longitude": 4.4025
    },
    "notes": "Particules fines"
  },
  {
    "experimentId": "exp-023-madrid-birdsong-ai",
    "studentName": "María García",
    "sensorType": "PM10",
    "value": 48.1,
    "unit": "μg/m³",
    "timestamp": "2024-01-17T13:59:00Z",
    "location": {
      "latitude": 40.4378,
      "longitude": -3.6795
    },
    "notes": "Poussières urbaines"
  },
  {
    "experimentId": "exp-011-paris-smart-objects",
    "studentName": "Chloé Simon",
    "sensorType": "Water pH",
    "value": 7.98,
    "unit": "pH",
    "timestamp": "2024-01-17T14:58:00Z",
    "location": {
      "latitude": 48.8734,
      "longitude": 2.32
    },
    "notes": "Légèrement acide"
  },
  {
    "experimentId": "exp-035-clermont-uv-sensors",
    "studentName": "Claire Rousseau",
    "sensorType": "PM2.5",
    "value": 14.3,
    "unit": "μg/m³",
    "timestamp": "2024-01-17T15:28:00Z",
    "location": {
      "latitude": 45.7772,
      "longitude": 3.087
    },
    "notes": "Pollution modérée"
  },
  {
    "experimentId": "exp-046-plovdiv-cultural-sensors",
    "studentName": "Thomas Mercier",
    "sensorType": "Motion Detection",
    "value": 57.0,
    "unit": "count",
    "timestamp": "2024-01-17T19:00:00Z",
    "location": {
      "latitude": 42.1354,
      "longitude": 24.7453
    },
    "notes": "Zone calme"
  },
  {
    "experimentId": "exp-017-aix-energy-perspective",
    "studentName": "Pierre Martin",
    "sensorType": "UV Index",
    "value": 5.7,
    "unit": "index",
    "timestamp": "2024-01-17T20:19:00Z",
    "location": {
      "latitude": 43.5155,
      "longitude": 5.4425
    },
    "notes": "Ciel couvert"
  },
  {
    "experimentId": "exp-030-strasbourg-motion-sensors",
    "studentName": "Camille Petit",
    "sensorType": "Temperature",
    "value": 6.6,
    "unit": "°C",
    "timestamp": "2024-01-17T20:56:00Z",
    "location": {
      "latitude": 48.5734,
      "longitude": 7.7521
    },
    "notes": "Pic de chaleur"
  },
  {
    "experimentId": "exp-034-rennes-magnetic-sensors",
    "studentName": "Chloé Simon",
    "sensorType": "Light",
    "value": 5338.0,
    "unit": "lux",
    "timestamp": "2024-01-18T06:30:00Z",
    "location": {
      "latitude": 48.1173,
      "longitude": -1.6778
    },
    "notes": "Éclairage artificiel"
  },
  {
    "experimentId": "exp-047-athens-urban-heat",
    "studentName": "Sophie Moreau",
    "sensorType": "CO2",
    "value": 390.0,
    "unit": "ppm",
    "timestamp": "2024-01-18T09:39:00Z",
    "location": {
      "latitude": 37.9838,
      "longitude": 23.7275
    },
    "notes": "Mesure de référence"
  },
  {
    "experimentId": "exp-004-larochelle-whisper-walls",
    "studentName": "Léa Fournier",
    "sensorType": "UV Index",
    "value": 2.9,
    "unit": "index",
    "timestamp": "2024-01-18T13:45:00Z",
    "location": {
      "latitude": 46.1591,
      "longitude": -1.152
    },
    "notes": "Protection requise"
  },
  {
    "experimentId": "exp-047-athens-urban-heat",
    "studentName": "Chloé Simon",
    "sensorType": "Light",
    "value": 16118.0,
    "unit": "lux",
    "timestamp": "2024-01-19T06:56:00Z",
    "location": {
      "latitude": 37.9838,
      "longitude": 23.7275
    },
    "notes": "Plein soleil"
  },
  {
    "experimentId": "exp-018-marseille-insulation",
    "studentName": "Emma Girard",
    "sensorType": "Sound",
    "value": 66.1,
    "unit": "dB",
    "timestamp": "2024-01-19T07:33:00Z",
    "location": {
      "latitude": 43.3047,
      "longitude": 5.3805
    },
    "notes": "Bruit ambiant"
  },
  {
    "experimentId": "exp-009-aix-soundsquad",
    "studentName": "Léa Fournier",
    "sensorType": "Water pH",
    "value": 6.93,
    "unit": "pH",
    "timestamp": "2024-01-19T08:38:00Z",
    "location": {
      "latitude": 43.5297,
      "longitude": 5.4474
    },
    "notes": "Légèrement acide"
  },
  {
    "experimentId": "exp-023-madrid-birdsong-ai",
    "studentName": "José Pérez",
    "sensorType": "Motion Detection",
    "value": 51.0,
    "unit": "count",
    "timestamp": "2024-01-19T12:16:00Z",
    "location": {
      "latitude": 40.4378,
      "longitude": -3.6795
    },
    "notes": "Surveillance"
  },
  {
    "experimentId": "exp-004-larochelle-whisper-walls",
    "studentName": "Camille Petit",
    "sensorType": "Vibration",
    "value": 2.31,
    "unit": "mm/s",
    "timestamp": "2024-01-19T16:07:00Z",
    "location": {
      "latitude": 46.1591,
      "longitude": -1.152
    },
    "notes": "Passage véhicule"
  },
  {
    "experimentId": "exp-041-firenze-traffic-sensors",
    "studentName": "Marco Bianchi",
    "sensorType": "PM2.5",
    "value": 16.5,
    "unit": "μg/m³",
    "timestamp": "2024-01-19T16:24:00Z",
    "location": {
      "latitude": 43.7696,
      "longitude": 11.2558
    },
    "notes": "Pollution modérée"
  },
  {
    "experimentId": "exp-014-naples-negawatt",
    "studentName": "Léa Fournier",
    "sensorType": "Light",
    "value": 43881.0,
    "unit": "lux",
    "timestamp": "2024-01-19T19:03:00Z",
    "location": {
      "latitude": 40.8359,
      "longitude": 14.2488
    },
    "notes": "Ombre partielle"
  },
  {
    "experimentId": "exp-032-montpellier-light-sensors",
    "studentName": "Léa Fournier",
    "sensorType": "Motion Detection",
    "value": 28.0,
    "unit": "count",
    "timestamp": "2024-01-20T07:03:00Z",
    "location": {
      "latitude": 43.611,
      "longitude": 3.8767
    },
    "notes": "Surveillance"
  },
  {
    "experimentId": "exp-014-naples-negawatt",
    "studentName": "Léa Fournier",
    "sensorType": "Water pH",
    "value": 7.41,
    "unit": "pH",
    "timestamp": "2024-01-20T07:39:00Z",
    "location": {
      "latitude": 40.8359,
      "longitude": 14.2488
    },
    "notes": "Contrôle qualité"
  },
  {
    "experimentId": "exp-027-toulouse-humidity-monitoring",
    "studentName": "Lucas Bernard",
    "sensorType": "Humidité",
    "value": 45,
    "unit": "%",
    "timestamp": "2024-01-20T08:00:00.000Z",
    "location": {
      "latitude": 43.6047,
      "longitude": 1.4442
    },
    "notes": "Salle de classe A - matin"
  },
  {
    "experimentId": "exp-027-toulouse-humidity-monitoring",
    "studentName": "Lucas Bernard",
    "sensorType": "PM2.5",
    "value": 12.3,
    "unit": "μg/m³",
    "timestamp": "2024-01-20T08:00:00.000Z",
    "location": {
      "latitude": 43.6047,
      "longitude": 1.4442
    },
    "notes": "Particules fines - niveau acceptable"
  },
  {
    "experimentId": "exp-035-clermont-uv-sensors",
    "studentName": "Marie Dubois",
    "sensorType": "Magnetic Field",
    "value": 52.3,
    "unit": "μT",
    "timestamp": "2024-01-20T15:01:00Z",
    "location": {
      "latitude": 45.7772,
      "longitude": 3.087
    },
    "notes": "Conditions normales"
  },
  {
    "experimentId": "exp-027-toulouse-humidity-monitoring",
    "studentName": "Nour El Amri",
    "sensorType": "Humidité",
    "value": 68,
    "unit": "%",
    "timestamp": "2024-01-20T16:00:00.000Z",
    "location": {
      "latitude": 43.6047,
      "longitude": 1.4442
    },
    "notes": "Salle de classe A - fin de journée"
  },
  {
    "experimentId": "exp-027-toulouse-humidity-monitoring",
    "studentName": "Chloé Morel",
    "sensorType": "COV",
    "value": 185,
    "unit": "ppb",
    "timestamp": "2024-01-20T16:00:00.000Z",
    "location": {
      "latitude": 43.6047,
      "longitude": 1.4442
    },
    "notes": "Composés organiques volatils"
  },
  {
    "experimentId": "exp-030-strasbourg-motion-sensors",
    "studentName": "Manon Robert",
    "sensorType": "Vibration",
    "value": 4.47,
    "unit": "mm/s",
    "timestamp": "2024-01-20T20:28:00Z",
    "location": {
      "latitude": 48.5734,
      "longitude": 7.7521
    },
    "notes": "Vibrations faibles"
  },
  {
    "experimentId": "exp-020-larochelle-chatbot",
    "studentName": "Hugo Blanc",
    "sensorType": "Pressure",
    "value": 1023.7,
    "unit": "hPa",
    "timestamp": "2024-01-21T06:04:00Z",
    "location": {
      "latitude": 46.1574,
      "longitude": -1.1506
    },
    "notes": "Anticyclone"
  },
  {
    "experimentId": "exp-012-larochelle-mobility-regulation",
    "studentName": "Lucas Roux",
    "sensorType": "CO2",
    "value": 1175.0,
    "unit": "ppm",
    "timestamp": "2024-01-21T07:34:00Z",
    "location": {
      "latitude": 46.1603,
      "longitude": -1.1511
    },
    "notes": "Émissions locales"
  },
  {
    "experimentId": "exp-039-roma-dust-sensors",
    "studentName": "Sara Ricci",
    "sensorType": "Light",
    "value": 24083.0,
    "unit": "lux",
    "timestamp": "2024-01-21T08:52:00Z",
    "location": {
      "latitude": 41.9028,
      "longitude": 12.4964
    },
    "notes": "Luminosité naturelle"
  },
  {
    "experimentId": "exp-037-antwerp-air-sensors",
    "studentName": "Claire Rousseau",
    "sensorType": "Motion Detection",
    "value": 25.0,
    "unit": "count",
    "timestamp": "2024-01-21T10:05:00Z",
    "location": {
      "latitude": 51.2194,
      "longitude": 4.4025
    },
    "notes": "Activité normale"
  },
  {
    "experimentId": "exp-013-bruxelles-road-signs",
    "studentName": "Antoine Leroy",
    "sensorType": "Air Quality Index",
    "value": 60.0,
    "unit": "AQI",
    "timestamp": "2024-01-21T11:17:00Z",
    "location": {
      "latitude": 50.8465,
      "longitude": 4.3525
    },
    "notes": "Qualité air bonne"
  },
  {
    "experimentId": "exp-003-paris-factbusters",
    "studentName": "Camille Petit",
    "sensorType": "Wind Speed",
    "value": 8.1,
    "unit": "m/s",
    "timestamp": "2024-01-21T17:26:00Z",
    "location": {
      "latitude": 48.8566,
      "longitude": 2.3522
    },
    "notes": "Vent faible"
  },
  {
    "experimentId": "exp-017-aix-energy-perspective",
    "studentName": "Thomas Mercier",
    "sensorType": "Soil Moisture",
    "value": 65.7,
    "unit": "%",
    "timestamp": "2024-01-21T19:49:00Z",
    "location": {
      "latitude": 43.5155,
      "longitude": 5.4425
    },
    "notes": "Sol sec"
  },
  {
    "experimentId": "exp-023-madrid-birdsong-ai",
    "studentName": "Carmen González",
    "sensorType": "Motion Detection",
    "value": 23.0,
    "unit": "count",
    "timestamp": "2024-01-22T08:51:00Z",
    "location": {
      "latitude": 40.4378,
      "longitude": -3.6795
    },
    "notes": "Passage fréquent"
  },
  {
    "experimentId": "exp-007-madrid-sleep-battle",
    "studentName": "Laura Sánchez",
    "sensorType": "Air Quality Index",
    "value": 145.0,
    "unit": "AQI",
    "timestamp": "2024-01-22T09:22:00Z",
    "location": {
      "latitude": 40.4168,
      "longitude": -3.7038
    },
    "notes": "Conditions normales"
  },
  {
    "experimentId": "exp-016-sofia-smart-lighting",
    "studentName": "Marie Dubois",
    "sensorType": "CO2",
    "value": 926.0,
    "unit": "ppm",
    "timestamp": "2024-01-22T09:53:00Z",
    "location": {
      "latitude": 42.695,
      "longitude": 23.3253
    },
    "notes": "Zone industrielle"
  },
  {
    "experimentId": "exp-003-paris-factbusters",
    "studentName": "Lucas Roux",
    "sensorType": "Magnetic Field",
    "value": 41.7,
    "unit": "μT",
    "timestamp": "2024-01-22T12:08:00Z",
    "location": {
      "latitude": 48.8566,
      "longitude": 2.3522
    },
    "notes": "Champ magnétique"
  },
  {
    "experimentId": "exp-014-naples-negawatt",
    "studentName": "Julien Bernard",
    "sensorType": "Sound",
    "value": 50.2,
    "unit": "dB",
    "timestamp": "2024-01-22T13:28:00Z",
    "location": {
      "latitude": 40.8359,
      "longitude": 14.2488
    },
    "notes": "Zone calme"
  },
  {
    "experimentId": "exp-031-lille-pressure-sensors",
    "studentName": "Nicolas Laurent",
    "sensorType": "Motion Detection",
    "value": 25.0,
    "unit": "count",
    "timestamp": "2024-01-23T06:09:00Z",
    "location": {
      "latitude": 50.6292,
      "longitude": 3.0573
    },
    "notes": "Activité normale"
  },
  {
    "experimentId": "exp-046-plovdiv-cultural-sensors",
    "studentName": "Julien Bernard",
    "sensorType": "Humidity",
    "value": 74.8,
    "unit": "%",
    "timestamp": "2024-01-23T07:01:00Z",
    "location": {
      "latitude": 42.1354,
      "longitude": 24.7453
    },
    "notes": "Brouillard matinal"
  },
  {
    "experimentId": "exp-007-madrid-sleep-battle",
    "studentName": "Carlos López",
    "sensorType": "UV Index",
    "value": 8.3,
    "unit": "index",
    "timestamp": "2024-01-23T08:16:00Z",
    "location": {
      "latitude": 40.4168,
      "longitude": -3.7038
    },
    "notes": "Pic UV"
  },
  {
    "experimentId": "exp-046-plovdiv-cultural-sensors",
    "studentName": "Nicolas Laurent",
    "sensorType": "Pressure",
    "value": 1018.6,
    "unit": "hPa",
    "timestamp": "2024-01-23T08:26:00Z",
    "location": {
      "latitude": 42.1354,
      "longitude": 24.7453
    },
    "notes": "Pression stable"
  },
  {
    "experimentId": "exp-034-rennes-magnetic-sensors",
    "studentName": "Hugo Blanc",
    "sensorType": "Energy Consumption",
    "value": 155.9,
    "unit": "kWh",
    "timestamp": "2024-01-23T09:10:00Z",
    "location": {
      "latitude": 48.1173,
      "longitude": -1.6778
    },
    "notes": "Usage optimal"
  },
  {
    "experimentId": "exp-008-sofia-decibel-detectives",
    "studentName": "Léa Fournier",
    "sensorType": "Wind Speed",
    "value": 5.5,
    "unit": "m/s",
    "timestamp": "2024-01-23T16:27:00Z",
    "location": {
      "latitude": 42.6977,
      "longitude": 23.3219
    },
    "notes": "Vent faible"
  },
  {
    "experimentId": "exp-002-marseille-data-context",
    "studentName": "Nicolas Laurent",
    "sensorType": "CO2",
    "value": 744.0,
    "unit": "ppm",
    "timestamp": "2024-01-23T17:13:00Z",
    "location": {
      "latitude": 43.2965,
      "longitude": 5.3698
    },
    "notes": "Pic urbain"
  },
  {
    "experimentId": "exp-007-madrid-sleep-battle",
    "studentName": "Antonio Ramírez",
    "sensorType": "PM2.5",
    "value": 29.8,
    "unit": "μg/m³",
    "timestamp": "2024-01-23T18:36:00Z",
    "location": {
      "latitude": 40.4168,
      "longitude": -3.7038
    },
    "notes": "Pollution modérée"
  },
  {
    "experimentId": "exp-010-marseille-air-quality",
    "studentName": "Antoine Leroy",
    "sensorType": "PM2.5",
    "value": 31.5,
    "unit": "μg/m³",
    "timestamp": "2024-01-24T09:35:00Z",
    "location": {
      "latitude": 43.2951,
      "longitude": 5.3692
    },
    "notes": "Air propre"
  },
  {
    "experimentId": "exp-034-rennes-magnetic-sensors",
    "studentName": "Sophie Moreau",
    "sensorType": "Temperature",
    "value": -2.6,
    "unit": "°C",
    "timestamp": "2024-01-24T10:28:00Z",
    "location": {
      "latitude": 48.1173,
      "longitude": -1.6778
    },
    "notes": "Mesure matinale"
  },
  {
    "experimentId": "exp-038-ghent-noise-sensors",
    "studentName": "Lucas Roux",
    "sensorType": "Motion Detection",
    "value": 98.0,
    "unit": "count",
    "timestamp": "2024-01-24T10:57:00Z",
    "location": {
      "latitude": 51.0543,
      "longitude": 3.7174
    },
    "notes": "Passage fréquent"
  },
  {
    "experimentId": "exp-048-thessaloniki-air-quality",
    "studentName": "Camille Petit",
    "sensorType": "Sound",
    "value": 40.2,
    "unit": "dB",
    "timestamp": "2024-01-24T11:39:00Z",
    "location": {
      "latitude": 40.6401,
      "longitude": 22.9444
    },
    "notes": "Activité urbaine"
  },
  {
    "experimentId": "exp-006-naples-pollinators",
    "studentName": "Sophie Moreau",
    "sensorType": "Water pH",
    "value": 6.72,
    "unit": "pH",
    "timestamp": "2024-01-24T13:04:00Z",
    "location": {
      "latitude": 40.8518,
      "longitude": 14.2681
    },
    "notes": "pH optimal"
  },
  {
    "experimentId": "exp-007-madrid-sleep-battle",
    "studentName": "Ana Rodríguez",
    "sensorType": "Water Temperature",
    "value": 11.8,
    "unit": "°C",
    "timestamp": "2024-01-24T14:02:00Z",
    "location": {
      "latitude": 40.4168,
      "longitude": -3.7038
    },
    "notes": "Température eau"
  },
  {
    "experimentId": "exp-033-nantes-soil-moisture",
    "studentName": "Claire Rousseau",
    "sensorType": "PM2.5",
    "value": 23.8,
    "unit": "μg/m³",
    "timestamp": "2024-01-24T14:52:00Z",
    "location": {
      "latitude": 47.2184,
      "longitude": -1.5536
    },
    "notes": "Conditions venteuses"
  },
  {
    "experimentId": "exp-048-thessaloniki-air-quality",
    "studentName": "Léa Fournier",
    "sensorType": "Magnetic Field",
    "value": 68.1,
    "unit": "μT",
    "timestamp": "2024-01-24T15:42:00Z",
    "location": {
      "latitude": 40.6401,
      "longitude": 22.9444
    },
    "notes": "Mesure de référence"
  },
  {
    "experimentId": "exp-028-bordeaux-water-sensors",
    "studentName": "Antoine Leroy",
    "sensorType": "NO2",
    "value": 27.0,
    "unit": "μg/m³",
    "timestamp": "2024-01-24T16:08:00Z",
    "location": {
      "latitude": 44.8378,
      "longitude": -0.5792
    },
    "notes": "Émissions véhicules"
  },
  {
    "experimentId": "exp-016-sofia-smart-lighting",
    "studentName": "Lucas Roux",
    "sensorType": "UV Index",
    "value": 0.0,
    "unit": "index",
    "timestamp": "2024-01-24T17:43:00Z",
    "location": {
      "latitude": 42.695,
      "longitude": 23.3253
    },
    "notes": "Conditions normales"
  },
  {
    "experimentId": "exp-040-milano-energy-sensors",
    "studentName": "Sara Ricci",
    "sensorType": "Humidity",
    "value": 82.4,
    "unit": "%",
    "timestamp": "2024-01-25T06:12:00Z",
    "location": {
      "latitude": 45.4642,
      "longitude": 9.19
    },
    "notes": "Conditions sèches"
  },
  {
    "experimentId": "exp-042-barcelona-wind-sensors",
    "studentName": "Laura Sánchez",
    "sensorType": "Humidity",
    "value": 60.6,
    "unit": "%",
    "timestamp": "2024-01-25T07:10:00Z",
    "location": {
      "latitude": 41.3851,
      "longitude": 2.1734
    },
    "notes": "Humidité stable"
  },
  {
    "experimentId": "exp-011-paris-smart-objects",
    "studentName": "Léa Fournier",
    "sensorType": "Vibration",
    "value": 0.68,
    "unit": "mm/s",
    "timestamp": "2024-01-25T07:17:00Z",
    "location": {
      "latitude": 48.8734,
      "longitude": 2.32
    },
    "notes": "Mesure de base"
  },
  {
    "experimentId": "exp-027-toulouse-humidity-monitoring",
    "studentName": "Julien Bernard",
    "sensorType": "Vibration",
    "value": 2.67,
    "unit": "mm/s",
    "timestamp": "2024-01-25T10:29:00Z",
    "location": {
      "latitude": 43.6047,
      "longitude": 1.4442
    },
    "notes": "Vibrations faibles"
  },
  {
    "experimentId": "exp-031-lille-pressure-sensors",
    "studentName": "Léa Fournier",
    "sensorType": "Motion Detection",
    "value": 39.0,
    "unit": "count",
    "timestamp": "2024-01-25T12:39:00Z",
    "location": {
      "latitude": 50.6292,
      "longitude": 3.0573
    },
    "notes": "Surveillance"
  },
  {
    "experimentId": "exp-025-aix-trees-vs-cars",
    "studentName": "Emma Girard",
    "sensorType": "Magnetic Field",
    "value": 60.0,
    "unit": "μT",
    "timestamp": "2024-01-25T14:10:00Z",
    "location": {
      "latitude": 43.532,
      "longitude": 5.4421
    },
    "notes": "Conditions normales"
  },
  {
    "experimentId": "exp-040-milano-energy-sensors",
    "studentName": "Giulia Rossi",
    "sensorType": "Water pH",
    "value": 7.5,
    "unit": "pH",
    "timestamp": "2024-01-25T19:07:00Z",
    "location": {
      "latitude": 45.4642,
      "longitude": 9.19
    },
    "notes": "Eau potable"
  },
  {
    "experimentId": "exp-047-athens-urban-heat",
    "studentName": "Chloé Simon",
    "sensorType": "CO2",
    "value": 909.0,
    "unit": "ppm",
    "timestamp": "2024-01-25T20:00:00Z",
    "location": {
      "latitude": 37.9838,
      "longitude": 23.7275
    },
    "notes": "Mesure de référence"
  },
  {
    "experimentId": "exp-006-naples-pollinators",
    "studentName": "Pierre Martin",
    "sensorType": "Pressure",
    "value": 983.6,
    "unit": "hPa",
    "timestamp": "2024-01-25T20:16:00Z",
    "location": {
      "latitude": 40.8518,
      "longitude": 14.2681
    },
    "notes": "Conditions normales"
  },
  {
    "experimentId": "exp-011-paris-smart-objects",
    "studentName": "Camille Petit",
    "sensorType": "Pressure",
    "value": 1017.2,
    "unit": "hPa",
    "timestamp": "2024-01-26T06:05:00Z",
    "location": {
      "latitude": 48.8734,
      "longitude": 2.32
    },
    "notes": "Front météo"
  },
  {
    "experimentId": "exp-045-varna-beach-sensors",
    "studentName": "Lucas Roux",
    "sensorType": "Vibration",
    "value": 4.63,
    "unit": "mm/s",
    "timestamp": "2024-01-26T11:44:00Z",
    "location": {
      "latitude": 43.2141,
      "longitude": 27.9147
    },
    "notes": "Surveillance continue"
  },
  {
    "experimentId": "exp-029-nice-seismic-network",
    "studentName": "Julien Bernard",
    "sensorType": "Vibration",
    "value": 2.23,
    "unit": "mm/s",
    "timestamp": "2024-01-26T11:53:00Z",
    "location": {
      "latitude": 43.7102,
      "longitude": 7.262
    },
    "notes": "Activité sismique"
  },
  {
    "experimentId": "exp-055-stockholm-smart-waste",
    "studentName": "Emma Girard",
    "sensorType": "Motion Detection",
    "value": 62.0,
    "unit": "count",
    "timestamp": "2024-01-26T19:45:00Z",
    "location": {
      "latitude": 59.3293,
      "longitude": 18.0686
    },
    "notes": "Mouvement détecté"
  },
  {
    "experimentId": "exp-049-porto-energy-sensors",
    "studentName": "Camille Petit",
    "sensorType": "UV Index",
    "value": 8.5,
    "unit": "index",
    "timestamp": "2024-01-27T06:34:00Z",
    "location": {
      "latitude": 41.1579,
      "longitude": -8.6291
    },
    "notes": "Pic UV"
  },
  {
    "experimentId": "exp-010-marseille-air-quality",
    "studentName": "Antoine Leroy",
    "sensorType": "Air Quality Index",
    "value": 145.0,
    "unit": "AQI",
    "timestamp": "2024-01-27T07:54:00Z",
    "location": {
      "latitude": 43.2951,
      "longitude": 5.3692
    },
    "notes": "Conditions normales"
  },
  {
    "experimentId": "exp-055-stockholm-smart-waste",
    "studentName": "Sophie Moreau",
    "sensorType": "Water Temperature",
    "value": 24.3,
    "unit": "°C",
    "timestamp": "2024-01-27T10:02:00Z",
    "location": {
      "latitude": 59.3293,
      "longitude": 18.0686
    },
    "notes": "Relevé quotidien"
  },
  {
    "experimentId": "exp-023-madrid-birdsong-ai",
    "studentName": "María García",
    "sensorType": "Humidity",
    "value": 33.1,
    "unit": "%",
    "timestamp": "2024-01-27T12:49:00Z",
    "location": {
      "latitude": 40.4378,
      "longitude": -3.6795
    },
    "notes": "Après précipitations"
  },
  {
    "experimentId": "exp-048-thessaloniki-air-quality",
    "studentName": "Hugo Blanc",
    "sensorType": "Pressure",
    "value": 1009.1,
    "unit": "hPa",
    "timestamp": "2024-01-27T20:06:00Z",
    "location": {
      "latitude": 40.6401,
      "longitude": 22.9444
    },
    "notes": "Conditions normales"
  },
  {
    "experimentId": "exp-033-nantes-soil-moisture",
    "studentName": "Antoine Leroy",
    "sensorType": "Magnetic Field",
    "value": 48.7,
    "unit": "μT",
    "timestamp": "2024-01-28T07:06:00Z",
    "location": {
      "latitude": 47.2184,
      "longitude": -1.5536
    },
    "notes": "Mesure de référence"
  },
  {
    "experimentId": "exp-020-larochelle-chatbot",
    "studentName": "Chloé Simon",
    "sensorType": "Temperature",
    "value": -4.4,
    "unit": "°C",
    "timestamp": "2024-01-28T07:56:00Z",
    "location": {
      "latitude": 46.1574,
      "longitude": -1.1506
    },
    "notes": "Mesure nocturne"
  },
  {
    "experimentId": "exp-040-milano-energy-sensors",
    "studentName": "Francesca Ferrari",
    "sensorType": "Wind Speed",
    "value": 11.6,
    "unit": "m/s",
    "timestamp": "2024-01-28T10:59:00Z",
    "location": {
      "latitude": 45.4642,
      "longitude": 9.19
    },
    "notes": "Vent faible"
  },
  {
    "experimentId": "exp-007-madrid-sleep-battle",
    "studentName": "Isabel Cruz",
    "sensorType": "Water Temperature",
    "value": 12.9,
    "unit": "°C",
    "timestamp": "2024-01-28T12:35:00Z",
    "location": {
      "latitude": 40.4168,
      "longitude": -3.7038
    },
    "notes": "Conditions normales"
  },
  {
    "experimentId": "exp-051-geneva-water-quality",
    "studentName": "Sophie Moreau",
    "sensorType": "Water pH",
    "value": 6.77,
    "unit": "pH",
    "timestamp": "2024-01-28T12:54:00Z",
    "location": {
      "latitude": 46.2044,
      "longitude": 6.1432
    },
    "notes": "Légèrement acide"
  },
  {
    "experimentId": "exp-035-clermont-uv-sensors",
    "studentName": "Chloé Simon",
    "sensorType": "CO2",
    "value": 631.0,
    "unit": "ppm",
    "timestamp": "2024-01-28T15:19:00Z",
    "location": {
      "latitude": 45.7772,
      "longitude": 3.087
    },
    "notes": "Concentration normale"
  },
  {
    "experimentId": "exp-022-naples-waste-sorting",
    "studentName": "Camille Petit",
    "sensorType": "PM2.5",
    "value": 35.0,
    "unit": "μg/m³",
    "timestamp": "2024-01-28T17:05:00Z",
    "location": {
      "latitude": 40.8467,
      "longitude": 14.2577
    },
    "notes": "Pollution modérée"
  },
  {
    "experimentId": "exp-018-marseille-insulation",
    "studentName": "Camille Petit",
    "sensorType": "Magnetic Field",
    "value": 76.0,
    "unit": "μT",
    "timestamp": "2024-01-28T17:38:00Z",
    "location": {
      "latitude": 43.3047,
      "longitude": 5.3805
    },
    "notes": "Interférences"
  },
  {
    "experimentId": "exp-036-liege-vibration-sensors",
    "studentName": "Lucas Roux",
    "sensorType": "Humidity",
    "value": 28.0,
    "unit": "%",
    "timestamp": "2024-01-28T18:23:00Z",
    "location": {
      "latitude": 50.6326,
      "longitude": 5.5797
    },
    "notes": "Humidité élevée"
  },
  {
    "experimentId": "exp-032-montpellier-light-sensors",
    "studentName": "Sophie Moreau",
    "sensorType": "Pressure",
    "value": 986.5,
    "unit": "hPa",
    "timestamp": "2024-01-29T07:08:00Z",
    "location": {
      "latitude": 43.611,
      "longitude": 3.8767
    },
    "notes": "Anticyclone"
  },
  {
    "experimentId": "exp-020-larochelle-chatbot",
    "studentName": "Antoine Leroy",
    "sensorType": "Air Quality Index",
    "value": 23.0,
    "unit": "AQI",
    "timestamp": "2024-01-29T07:57:00Z",
    "location": {
      "latitude": 46.1574,
      "longitude": -1.1506
    },
    "notes": "Qualité air bonne"
  },
  {
    "experimentId": "exp-054-vienna-heritage-sensors",
    "studentName": "Maria Huber",
    "sensorType": "Température",
    "value": 18.5,
    "unit": "°C",
    "timestamp": "2024-01-29T08:00:00.000Z",
    "location": {
      "latitude": 48.2082,
      "longitude": 16.3738
    },
    "notes": "Cathédrale Saint-Étienne - nef"
  },
  {
    "experimentId": "exp-054-vienna-heritage-sensors",
    "studentName": "Hassan Al-Rashid",
    "sensorType": "Humidité",
    "value": 65,
    "unit": "%",
    "timestamp": "2024-01-29T08:00:00.000Z",
    "location": {
      "latitude": 48.2082,
      "longitude": 16.3738
    },
    "notes": "Taux d'humidité optimal pour les fresques"
  },
  {
    "experimentId": "exp-054-vienna-heritage-sensors",
    "studentName": "Klaus Fischer",
    "sensorType": "CO2",
    "value": 420,
    "unit": "ppm",
    "timestamp": "2024-01-29T08:30:00.000Z",
    "location": {
      "latitude": 48.2082,
      "longitude": 16.3738
    },
    "notes": "Niveau normal de CO2"
  },
  {
    "experimentId": "exp-055-stockholm-smart-waste",
    "studentName": "Antoine Leroy",
    "sensorType": "Light",
    "value": 28228.0,
    "unit": "lux",
    "timestamp": "2024-01-29T08:31:00Z",
    "location": {
      "latitude": 59.3293,
      "longitude": 18.0686
    },
    "notes": "Conditions nuageuses"
  },
  {
    "experimentId": "exp-054-vienna-heritage-sensors",
    "studentName": "Fatima Özdemir",
    "sensorType": "Vibrations",
    "value": 0.8,
    "unit": "mm/s",
    "timestamp": "2024-01-29T09:00:00.000Z",
    "location": {
      "latitude": 48.2082,
      "longitude": 16.3738
    },
    "notes": "Vibrations faibles - trafic urbain"
  },
  {
    "experimentId": "exp-054-vienna-heritage-sensors",
    "studentName": "Chloé Simon",
    "sensorType": "UV Index",
    "value": 8.4,
    "unit": "index",
    "timestamp": "2024-01-29T13:59:00Z",
    "location": {
      "latitude": 48.2082,
      "longitude": 16.3738
    },
    "notes": "Protection requise"
  },
  {
    "experimentId": "exp-053-amsterdam-flood-sensors",
    "studentName": "Finn de Wit",
    "sensorType": "Air Quality Index",
    "value": 65.0,
    "unit": "AQI",
    "timestamp": "2024-01-29T15:27:00Z",
    "location": {
      "latitude": 52.3676,
      "longitude": 4.9041
    },
    "notes": "Pollution modérée"
  },
  {
    "experimentId": "exp-042-barcelona-wind-sensors",
    "studentName": "Antonio Ramírez",
    "sensorType": "Air Quality Index",
    "value": 115.0,
    "unit": "AQI",
    "timestamp": "2024-01-29T16:39:00Z",
    "location": {
      "latitude": 41.3851,
      "longitude": 2.1734
    },
    "notes": "Qualité dégradée"
  },
  {
    "experimentId": "exp-050-lisbon-waste-sensors",
    "studentName": "Antoine Leroy",
    "sensorType": "PM2.5",
    "value": 23.4,
    "unit": "μg/m³",
    "timestamp": "2024-01-29T17:05:00Z",
    "location": {
      "latitude": 38.7223,
      "longitude": -9.1393
    },
    "notes": "Conditions venteuses"
  },
  {
    "experimentId": "exp-001-aix-city-detective",
    "studentName": "Chloé Simon",
    "sensorType": "UV Index",
    "value": 4.3,
    "unit": "index",
    "timestamp": "2024-01-29T17:38:00Z",
    "location": {
      "latitude": 43.5263,
      "longitude": 5.4454
    },
    "notes": "Pic UV"
  },
  {
    "experimentId": "exp-037-antwerp-air-sensors",
    "studentName": "Pierre Martin",
    "sensorType": "Humidity",
    "value": 59.3,
    "unit": "%",
    "timestamp": "2024-01-29T19:15:00Z",
    "location": {
      "latitude": 51.2194,
      "longitude": 4.4025
    },
    "notes": "Humidité élevée"
  },
  {
    "experimentId": "exp-019-paris-bio-inspired",
    "studentName": "Thomas Mercier",
    "sensorType": "Air Quality Index",
    "value": 74.0,
    "unit": "AQI",
    "timestamp": "2024-01-30T06:19:00Z",
    "location": {
      "latitude": 48.8497,
      "longitude": 2.3426
    },
    "notes": "Air excellent"
  },
  {
    "experimentId": "exp-031-lille-pressure-sensors",
    "studentName": "Manon Robert",
    "sensorType": "Humidity",
    "value": 87.1,
    "unit": "%",
    "timestamp": "2024-01-30T06:45:00Z",
    "location": {
      "latitude": 50.6292,
      "longitude": 3.0573
    },
    "notes": "Brouillard matinal"
  },
  {
    "experimentId": "exp-036-liege-vibration-sensors",
    "studentName": "Antoine Leroy",
    "sensorType": "Wind Speed",
    "value": 12.1,
    "unit": "m/s",
    "timestamp": "2024-01-30T06:59:00Z",
    "location": {
      "latitude": 50.6326,
      "longitude": 5.5797
    },
    "notes": "Rafales"
  },
  {
    "experimentId": "exp-001-aix-city-detective",
    "studentName": "Hugo Blanc",
    "sensorType": "Water pH",
    "value": 6.59,
    "unit": "pH",
    "timestamp": "2024-01-30T07:07:00Z",
    "location": {
      "latitude": 43.5263,
      "longitude": 5.4454
    },
    "notes": "Contrôle qualité"
  },
  {
    "experimentId": "exp-029-nice-seismic-network",
    "studentName": "Camille Petit",
    "sensorType": "Light",
    "value": 47244.0,
    "unit": "lux",
    "timestamp": "2024-01-30T08:13:00Z",
    "location": {
      "latitude": 43.7102,
      "longitude": 7.262
    },
    "notes": "Luminosité naturelle"
  },
  {
    "experimentId": "exp-020-larochelle-chatbot",
    "studentName": "Marie Dubois",
    "sensorType": "Humidity",
    "value": 55.7,
    "unit": "%",
    "timestamp": "2024-01-30T11:03:00Z",
    "location": {
      "latitude": 46.1574,
      "longitude": -1.1506
    },
    "notes": "Humidité élevée"
  },
  {
    "experimentId": "exp-004-larochelle-whisper-walls",
    "studentName": "Emma Girard",
    "sensorType": "UV Index",
    "value": 2.8,
    "unit": "index",
    "timestamp": "2024-01-30T12:27:00Z",
    "location": {
      "latitude": 46.1591,
      "longitude": -1.152
    },
    "notes": "Exposition modérée"
  },
  {
    "experimentId": "exp-020-larochelle-chatbot",
    "studentName": "Sophie Moreau",
    "sensorType": "PM2.5",
    "value": 16.8,
    "unit": "μg/m³",
    "timestamp": "2024-01-30T14:06:00Z",
    "location": {
      "latitude": 46.1574,
      "longitude": -1.1506
    },
    "notes": "Particules fines"
  },
  {
    "experimentId": "exp-039-roma-dust-sensors",
    "studentName": "Elena Bruno",
    "sensorType": "CO2",
    "value": 678.0,
    "unit": "ppm",
    "timestamp": "2024-01-30T15:08:00Z",
    "location": {
      "latitude": 41.9028,
      "longitude": 12.4964
    },
    "notes": "Pic urbain"
  },
  {
    "experimentId": "exp-011-paris-smart-objects",
    "studentName": "Léa Fournier",
    "sensorType": "Magnetic Field",
    "value": 38.3,
    "unit": "μT",
    "timestamp": "2024-01-30T17:34:00Z",
    "location": {
      "latitude": 48.8734,
      "longitude": 2.32
    },
    "notes": "Mesure de référence"
  },
  {
    "experimentId": "exp-015-madrid-energy-mix",
    "studentName": "Carlos López",
    "sensorType": "Air Quality Index",
    "value": 108.0,
    "unit": "AQI",
    "timestamp": "2024-01-30T18:11:00Z",
    "location": {
      "latitude": 40.408,
      "longitude": -3.6936
    },
    "notes": "Pollution modérée"
  },
  {
    "experimentId": "exp-041-firenze-traffic-sensors",
    "studentName": "Marco Bianchi",
    "sensorType": "Light",
    "value": 5789.0,
    "unit": "lux",
    "timestamp": "2024-01-30T19:27:00Z",
    "location": {
      "latitude": 43.7696,
      "longitude": 11.2558
    },
    "notes": "Plein soleil"
  },
  {
    "experimentId": "exp-010-marseille-air-quality",
    "studentName": "Nicolas Laurent",
    "sensorType": "Wind Speed",
    "value": 6.8,
    "unit": "m/s",
    "timestamp": "2024-01-30T20:19:00Z",
    "location": {
      "latitude": 43.2951,
      "longitude": 5.3692
    },
    "notes": "Brise légère"
  },
  {
    "experimentId": "exp-018-marseille-insulation",
    "studentName": "Sophie Moreau",
    "sensorType": "Energy Consumption",
    "value": 110.7,
    "unit": "kWh",
    "timestamp": "2024-01-30T20:30:00Z",
    "location": {
      "latitude": 43.3047,
      "longitude": 5.3805
    },
    "notes": "Usage optimal"
  },
  {
    "experimentId": "exp-016-sofia-smart-lighting",
    "studentName": "Pierre Martin",
    "sensorType": "Pressure",
    "value": 996.6,
    "unit": "hPa",
    "timestamp": "2024-01-30T20:32:00Z",
    "location": {
      "latitude": 42.695,
      "longitude": 23.3253
    },
    "notes": "Conditions normales"
  },
  {
    "experimentId": "exp-052-zurich-bike-sensors",
    "studentName": "Julien Bernard",
    "sensorType": "Soil Moisture",
    "value": 79.5,
    "unit": "%",
    "timestamp": "2024-01-31T07:54:00Z",
    "location": {
      "latitude": 47.3769,
      "longitude": 8.5417
    },
    "notes": "Conditions optimales"
  },
  {
    "experimentId": "exp-023-madrid-birdsong-ai",
    "studentName": "Miguel Fernández",
    "sensorType": "Wind Speed",
    "value": 6.7,
    "unit": "m/s",
    "timestamp": "2024-01-31T17:03:00Z",
    "location": {
      "latitude": 40.4378,
      "longitude": -3.6795
    },
    "notes": "Brise légère"
  },
  {
    "experimentId": "exp-055-stockholm-smart-waste",
    "studentName": "Pierre Martin",
    "sensorType": "Temperature",
    "value": -3.7,
    "unit": "°C",
    "timestamp": "2024-01-31T18:03:00Z",
    "location": {
      "latitude": 59.3293,
      "longitude": 18.0686
    },
    "notes": "Mesure nocturne"
  },
  {
    "experimentId": "exp-024-sofia-plants-city",
    "studentName": "Pierre Martin",
    "sensorType": "Sound",
    "value": 83.0,
    "unit": "dB",
    "timestamp": "2024-01-31T19:51:00Z",
    "location": {
      "latitude": 42.7105,
      "longitude": 23.3238
    },
    "notes": "Activité urbaine"
  },
  {
    "experimentId": "exp-008-sofia-decibel-detectives",
    "studentName": "Pierre Martin",
    "sensorType": "Sound",
    "value": 66.7,
    "unit": "dB",
    "timestamp": "2024-01-31T19:55:00Z",
    "location": {
      "latitude": 42.6977,
      "longitude": 23.3219
    },
    "notes": "Activité urbaine"
  },
  {
    "experimentId": "exp-009-aix-soundsquad",
    "studentName": "Chloé Simon",
    "sensorType": "Temperature",
    "value": -1.3,
    "unit": "°C",
    "timestamp": "2024-01-31T20:59:00Z",
    "location": {
      "latitude": 43.5297,
      "longitude": 5.4474
    },
    "notes": "Pic de chaleur"
  },
  {
    "experimentId": "exp-028-bordeaux-water-sensors",
    "studentName": "Marine Lafont",
    "sensorType": "pH",
    "value": 7.2,
    "unit": "pH",
    "timestamp": "2024-02-01T08:00:00.000Z",
    "location": {
      "latitude": 44.8378,
      "longitude": -0.5792
    },
    "notes": "Garonne - pont de pierre"
  },
  {
    "experimentId": "exp-028-bordeaux-water-sensors",
    "studentName": "Amine Bouzid",
    "sensorType": "Turbidité",
    "value": 15.8,
    "unit": "NTU",
    "timestamp": "2024-02-01T08:00:00.000Z",
    "location": {
      "latitude": 44.8378,
      "longitude": -0.5792
    },
    "notes": "Eau légèrement trouble"
  },
  {
    "experimentId": "exp-028-bordeaux-water-sensors",
    "studentName": "Sarah Dupont",
    "sensorType": "Oxygène dissous",
    "value": 8.5,
    "unit": "mg/L",
    "timestamp": "2024-02-01T08:30:00.000Z",
    "location": {
      "latitude": 44.8378,
      "longitude": -0.5792
    },
    "notes": "Bon niveau d'oxygénation"
  },
  {
    "experimentId": "exp-054-vienna-heritage-sensors",
    "studentName": "Manon Robert",
    "sensorType": "Wind Speed",
    "value": 10.8,
    "unit": "m/s",
    "timestamp": "2024-02-01T08:38:00Z",
    "location": {
      "latitude": 48.2082,
      "longitude": 16.3738
    },
    "notes": "Brise légère"
  },
  {
    "experimentId": "exp-033-nantes-soil-moisture",
    "studentName": "Emma Girard",
    "sensorType": "Temperature",
    "value": 1.8,
    "unit": "°C",
    "timestamp": "2024-02-01T08:48:00Z",
    "location": {
      "latitude": 47.2184,
      "longitude": -1.5536
    },
    "notes": "Pic de chaleur"
  },
  {
    "experimentId": "exp-028-bordeaux-water-sensors",
    "studentName": "Maxime Caron",
    "sensorType": "Conductivité",
    "value": 420,
    "unit": "μS/cm",
    "timestamp": "2024-02-01T09:00:00.000Z",
    "location": {
      "latitude": 44.8378,
      "longitude": -0.5792
    },
    "notes": "Conductivité normale pour la Garonne"
  },
  {
    "experimentId": "exp-025-aix-trees-vs-cars",
    "studentName": "Hugo Blanc",
    "sensorType": "Pressure",
    "value": 1010.4,
    "unit": "hPa",
    "timestamp": "2024-02-01T09:01:00Z",
    "location": {
      "latitude": 43.532,
      "longitude": 5.4421
    },
    "notes": "Dépression"
  },
  {
    "experimentId": "exp-048-thessaloniki-air-quality",
    "studentName": "Camille Petit",
    "sensorType": "Motion Detection",
    "value": 40.0,
    "unit": "count",
    "timestamp": "2024-02-01T13:53:00Z",
    "location": {
      "latitude": 40.6401,
      "longitude": 22.9444
    },
    "notes": "Surveillance"
  },
  {
    "experimentId": "exp-011-paris-smart-objects",
    "studentName": "Emma Girard",
    "sensorType": "Humidity",
    "value": 26.0,
    "unit": "%",
    "timestamp": "2024-02-01T16:35:00Z",
    "location": {
      "latitude": 48.8734,
      "longitude": 2.32
    },
    "notes": "Humidité élevée"
  },
  {
    "experimentId": "exp-046-plovdiv-cultural-sensors",
    "studentName": "Chloé Simon",
    "sensorType": "Vibration",
    "value": 2.92,
    "unit": "mm/s",
    "timestamp": "2024-02-02T07:54:00Z",
    "location": {
      "latitude": 42.1354,
      "longitude": 24.7453
    },
    "notes": "Vibrations faibles"
  },
  {
    "experimentId": "exp-029-nice-seismic-network",
    "studentName": "Camille Petit",
    "sensorType": "Magnetic Field",
    "value": 64.0,
    "unit": "μT",
    "timestamp": "2024-02-02T09:52:00Z",
    "location": {
      "latitude": 43.7102,
      "longitude": 7.262
    },
    "notes": "Mesure de référence"
  },
  {
    "experimentId": "exp-028-bordeaux-water-sensors",
    "studentName": "Pierre Martin",
    "sensorType": "PM10",
    "value": 46.1,
    "unit": "μg/m³",
    "timestamp": "2024-02-02T10:07:00Z",
    "location": {
      "latitude": 44.8378,
      "longitude": -0.5792
    },
    "notes": "Poussières urbaines"
  },
  {
    "experimentId": "exp-040-milano-energy-sensors",
    "studentName": "Davide Marino",
    "sensorType": "PM2.5",
    "value": 29.9,
    "unit": "μg/m³",
    "timestamp": "2024-02-02T10:58:00Z",
    "location": {
      "latitude": 45.4642,
      "longitude": 9.19
    },
    "notes": "Trafic dense"
  },
  {
    "experimentId": "exp-053-amsterdam-flood-sensors",
    "studentName": "Daan Bakker",
    "sensorType": "Light",
    "value": 21407.0,
    "unit": "lux",
    "timestamp": "2024-02-02T13:01:00Z",
    "location": {
      "latitude": 52.3676,
      "longitude": 4.9041
    },
    "notes": "Ombre partielle"
  },
  {
    "experimentId": "exp-040-milano-energy-sensors",
    "studentName": "Francesca Ferrari",
    "sensorType": "Wind Speed",
    "value": 14.4,
    "unit": "m/s",
    "timestamp": "2024-02-02T13:20:00Z",
    "location": {
      "latitude": 45.4642,
      "longitude": 9.19
    },
    "notes": "Brise légère"
  },
  {
    "experimentId": "exp-004-larochelle-whisper-walls",
    "studentName": "Manon Robert",
    "sensorType": "Energy Consumption",
    "value": 103.0,
    "unit": "kWh",
    "timestamp": "2024-02-02T15:09:00Z",
    "location": {
      "latitude": 46.1591,
      "longitude": -1.152
    },
    "notes": "Pic énergétique"
  },
  {
    "experimentId": "exp-033-nantes-soil-moisture",
    "studentName": "Claire Rousseau",
    "sensorType": "Temperature",
    "value": 3.7,
    "unit": "°C",
    "timestamp": "2024-02-02T18:06:00Z",
    "location": {
      "latitude": 47.2184,
      "longitude": -1.5536
    },
    "notes": "Capteur ombragé"
  },
  {
    "experimentId": "exp-029-nice-seismic-network",
    "studentName": "Manon Robert",
    "sensorType": "Energy Consumption",
    "value": 34.8,
    "unit": "kWh",
    "timestamp": "2024-02-02T18:24:00Z",
    "location": {
      "latitude": 43.7102,
      "longitude": 7.262
    },
    "notes": "Pic énergétique"
  },
  {
    "experimentId": "exp-044-sevilla-irrigation-sensors",
    "studentName": "Ana Rodríguez",
    "sensorType": "Motion Detection",
    "value": 84.0,
    "unit": "count",
    "timestamp": "2024-02-02T19:37:00Z",
    "location": {
      "latitude": 37.3886,
      "longitude": -5.9823
    },
    "notes": "Mouvement détecté"
  },
  {
    "experimentId": "exp-017-aix-energy-perspective",
    "studentName": "Claire Rousseau",
    "sensorType": "PM10",
    "value": 20.3,
    "unit": "μg/m³",
    "timestamp": "2024-02-03T11:34:00Z",
    "location": {
      "latitude": 43.5155,
      "longitude": 5.4425
    },
    "notes": "Conditions venteuses"
  },
  {
    "experimentId": "exp-039-roma-dust-sensors",
    "studentName": "Giulia Rossi",
    "sensorType": "Water pH",
    "value": 8.32,
    "unit": "pH",
    "timestamp": "2024-02-03T14:02:00Z",
    "location": {
      "latitude": 41.9028,
      "longitude": 12.4964
    },
    "notes": "pH optimal"
  },
  {
    "experimentId": "exp-013-bruxelles-road-signs",
    "studentName": "Sophie Moreau",
    "sensorType": "Temperature",
    "value": 3.3,
    "unit": "°C",
    "timestamp": "2024-02-03T15:15:00Z",
    "location": {
      "latitude": 50.8465,
      "longitude": 4.3525
    },
    "notes": "Mesure matinale"
  },
  {
    "experimentId": "exp-040-milano-energy-sensors",
    "studentName": "Marco Bianchi",
    "sensorType": "Light",
    "value": 43167.0,
    "unit": "lux",
    "timestamp": "2024-02-03T17:16:00Z",
    "location": {
      "latitude": 45.4642,
      "longitude": 9.19
    },
    "notes": "Conditions nuageuses"
  },
  {
    "experimentId": "exp-020-larochelle-chatbot",
    "studentName": "Thomas Mercier",
    "sensorType": "Motion Detection",
    "value": 2.0,
    "unit": "count",
    "timestamp": "2024-02-03T18:58:00Z",
    "location": {
      "latitude": 46.1574,
      "longitude": -1.1506
    },
    "notes": "Surveillance"
  },
  {
    "experimentId": "exp-030-strasbourg-motion-sensors",
    "studentName": "Nicolas Laurent",
    "sensorType": "Energy Consumption",
    "value": 74.4,
    "unit": "kWh",
    "timestamp": "2024-02-04T09:20:00Z",
    "location": {
      "latitude": 48.5734,
      "longitude": 7.7521
    },
    "notes": "Consommation normale"
  },
  {
    "experimentId": "exp-005-bruxelles-co2-sensors",
    "studentName": "Léa Fournier",
    "sensorType": "Soil Moisture",
    "value": 25.3,
    "unit": "%",
    "timestamp": "2024-02-04T09:25:00Z",
    "location": {
      "latitude": 50.8503,
      "longitude": 4.3517
    },
    "notes": "Besoin irrigation"
  },
  {
    "experimentId": "exp-019-paris-bio-inspired",
    "studentName": "Claire Rousseau",
    "sensorType": "Water Temperature",
    "value": 9.0,
    "unit": "°C",
    "timestamp": "2024-02-04T11:02:00Z",
    "location": {
      "latitude": 48.8497,
      "longitude": 2.3426
    },
    "notes": "Température eau"
  },
  {
    "experimentId": "exp-036-liege-vibration-sensors",
    "studentName": "Camille Petit",
    "sensorType": "Humidity",
    "value": 70.5,
    "unit": "%",
    "timestamp": "2024-02-04T11:40:00Z",
    "location": {
      "latitude": 50.6326,
      "longitude": 5.5797
    },
    "notes": "Conditions sèches"
  },
  {
    "experimentId": "exp-033-nantes-soil-moisture",
    "studentName": "Léa Fournier",
    "sensorType": "Air Quality Index",
    "value": 75.0,
    "unit": "AQI",
    "timestamp": "2024-02-04T11:53:00Z",
    "location": {
      "latitude": 47.2184,
      "longitude": -1.5536
    },
    "notes": "Air excellent"
  },
  {
    "experimentId": "exp-047-athens-urban-heat",
    "studentName": "Manon Robert",
    "sensorType": "PM2.5",
    "value": 16.1,
    "unit": "μg/m³",
    "timestamp": "2024-02-04T13:06:00Z",
    "location": {
      "latitude": 37.9838,
      "longitude": 23.7275
    },
    "notes": "Air propre"
  },
  {
    "experimentId": "exp-043-valencia-solar-sensors",
    "studentName": "Ana Rodríguez",
    "sensorType": "Light",
    "value": 31068.0,
    "unit": "lux",
    "timestamp": "2024-02-04T13:13:00Z",
    "location": {
      "latitude": 39.4699,
      "longitude": -0.3763
    },
    "notes": "Éclairage artificiel"
  },
  {
    "experimentId": "exp-003-paris-factbusters",
    "studentName": "Nicolas Laurent",
    "sensorType": "Wind Speed",
    "value": 13.2,
    "unit": "m/s",
    "timestamp": "2024-02-04T13:33:00Z",
    "location": {
      "latitude": 48.8566,
      "longitude": 2.3522
    },
    "notes": "Rafales"
  },
  {
    "experimentId": "exp-005-bruxelles-co2-sensors",
    "studentName": "Manon Robert",
    "sensorType": "Humidity",
    "value": 24.0,
    "unit": "%",
    "timestamp": "2024-02-04T16:13:00Z",
    "location": {
      "latitude": 50.8503,
      "longitude": 4.3517
    },
    "notes": "Humidité élevée"
  },
  {
    "experimentId": "exp-007-madrid-sleep-battle",
    "studentName": "Francisco Torres",
    "sensorType": "Temperature",
    "value": 1.8,
    "unit": "°C",
    "timestamp": "2024-02-04T16:40:00Z",
    "location": {
      "latitude": 40.4168,
      "longitude": -3.7038
    },
    "notes": "Pic de chaleur"
  },
  {
    "experimentId": "exp-005-bruxelles-co2-sensors",
    "studentName": "Léa Fournier",
    "sensorType": "Soil Moisture",
    "value": 65.5,
    "unit": "%",
    "timestamp": "2024-02-04T19:29:00Z",
    "location": {
      "latitude": 50.8503,
      "longitude": 4.3517
    },
    "notes": "Conditions optimales"
  },
  {
    "experimentId": "exp-007-madrid-sleep-battle",
    "studentName": "José Pérez",
    "sensorType": "PM2.5",
    "value": 23.7,
    "unit": "μg/m³",
    "timestamp": "2024-02-04T20:35:00Z",
    "location": {
      "latitude": 40.4168,
      "longitude": -3.7038
    },
    "notes": "Air propre"
  },
  {
    "experimentId": "exp-013-bruxelles-road-signs",
    "studentName": "Emma Girard",
    "sensorType": "Air Quality Index",
    "value": 97.0,
    "unit": "AQI",
    "timestamp": "2024-02-04T20:57:00Z",
    "location": {
      "latitude": 50.8465,
      "longitude": 4.3525
    },
    "notes": "Pollution modérée"
  },
  {
    "experimentId": "exp-044-sevilla-irrigation-sensors",
    "studentName": "Francisco Torres",
    "sensorType": "UV Index",
    "value": 9.0,
    "unit": "index",
    "timestamp": "2024-02-05T08:07:00Z",
    "location": {
      "latitude": 37.3886,
      "longitude": -5.9823
    },
    "notes": "Conditions normales"
  },
  {
    "experimentId": "exp-048-thessaloniki-air-quality",
    "studentName": "Antoine Leroy",
    "sensorType": "Soil Moisture",
    "value": 73.5,
    "unit": "%",
    "timestamp": "2024-02-05T11:39:00Z",
    "location": {
      "latitude": 40.6401,
      "longitude": 22.9444
    },
    "notes": "Conditions optimales"
  },
  {
    "experimentId": "exp-021-bruxelles-ai-datawalk",
    "studentName": "Emma Girard",
    "sensorType": "Vibration",
    "value": 2.53,
    "unit": "mm/s",
    "timestamp": "2024-02-05T13:44:00Z",
    "location": {
      "latitude": 50.8798,
      "longitude": 4.4142
    },
    "notes": "Passage véhicule"
  },
  {
    "experimentId": "exp-024-sofia-plants-city",
    "studentName": "Sophie Moreau",
    "sensorType": "Water Temperature",
    "value": 8.6,
    "unit": "°C",
    "timestamp": "2024-02-05T13:53:00Z",
    "location": {
      "latitude": 42.7105,
      "longitude": 23.3238
    },
    "notes": "Mesure matinale"
  },
  {
    "experimentId": "exp-035-clermont-uv-sensors",
    "studentName": "Sophie Moreau",
    "sensorType": "Motion Detection",
    "value": 56.0,
    "unit": "count",
    "timestamp": "2024-02-05T15:30:00Z",
    "location": {
      "latitude": 45.7772,
      "longitude": 3.087
    },
    "notes": "Zone calme"
  },
  {
    "experimentId": "exp-041-firenze-traffic-sensors",
    "studentName": "Francesca Ferrari",
    "sensorType": "CO2",
    "value": 1034.0,
    "unit": "ppm",
    "timestamp": "2024-02-05T16:28:00Z",
    "location": {
      "latitude": 43.7696,
      "longitude": 11.2558
    },
    "notes": "Concentration normale"
  },
  {
    "experimentId": "exp-036-liege-vibration-sensors",
    "studentName": "Camille Petit",
    "sensorType": "UV Index",
    "value": 1.7,
    "unit": "index",
    "timestamp": "2024-02-05T16:32:00Z",
    "location": {
      "latitude": 50.6326,
      "longitude": 5.5797
    },
    "notes": "Ciel couvert"
  },
  {
    "experimentId": "exp-024-sofia-plants-city",
    "studentName": "Claire Rousseau",
    "sensorType": "Humidity",
    "value": 68.7,
    "unit": "%",
    "timestamp": "2024-02-05T17:53:00Z",
    "location": {
      "latitude": 42.7105,
      "longitude": 23.3238
    },
    "notes": "Brouillard matinal"
  },
  {
    "experimentId": "exp-024-sofia-plants-city",
    "studentName": "Claire Rousseau",
    "sensorType": "Motion Detection",
    "value": 8.0,
    "unit": "count",
    "timestamp": "2024-02-05T19:34:00Z",
    "location": {
      "latitude": 42.7105,
      "longitude": 23.3238
    },
    "notes": "Mouvement détecté"
  },
  {
    "experimentId": "exp-013-bruxelles-road-signs",
    "studentName": "Camille Petit",
    "sensorType": "Water pH",
    "value": 6.79,
    "unit": "pH",
    "timestamp": "2024-02-06T09:51:00Z",
    "location": {
      "latitude": 50.8465,
      "longitude": 4.3525
    },
    "notes": "Légèrement acide"
  },
  {
    "experimentId": "exp-021-bruxelles-ai-datawalk",
    "studentName": "Manon Robert",
    "sensorType": "Pressure",
    "value": 998.5,
    "unit": "hPa",
    "timestamp": "2024-02-06T10:23:00Z",
    "location": {
      "latitude": 50.8798,
      "longitude": 4.4142
    },
    "notes": "Anticyclone"
  },
  {
    "experimentId": "exp-031-lille-pressure-sensors",
    "studentName": "Pierre Martin",
    "sensorType": "Water pH",
    "value": 8.36,
    "unit": "pH",
    "timestamp": "2024-02-06T12:44:00Z",
    "location": {
      "latitude": 50.6292,
      "longitude": 3.0573
    },
    "notes": "Légèrement acide"
  },
  {
    "experimentId": "exp-023-madrid-birdsong-ai",
    "studentName": "José Pérez",
    "sensorType": "Motion Detection",
    "value": 55.0,
    "unit": "count",
    "timestamp": "2024-02-06T13:00:00Z",
    "location": {
      "latitude": 40.4378,
      "longitude": -3.6795
    },
    "notes": "Mouvement détecté"
  },
  {
    "experimentId": "exp-007-madrid-sleep-battle",
    "studentName": "Laura Sánchez",
    "sensorType": "Water Temperature",
    "value": 21.1,
    "unit": "°C",
    "timestamp": "2024-02-06T14:49:00Z",
    "location": {
      "latitude": 40.4168,
      "longitude": -3.7038
    },
    "notes": "Relevé quotidien"
  },
  {
    "experimentId": "exp-019-paris-bio-inspired",
    "studentName": "Emma Girard",
    "sensorType": "PM10",
    "value": 49.5,
    "unit": "μg/m³",
    "timestamp": "2024-02-06T20:14:00Z",
    "location": {
      "latitude": 48.8497,
      "longitude": 2.3426
    },
    "notes": "Pollution locale"
  },
  {
    "experimentId": "exp-032-montpellier-light-sensors",
    "studentName": "Claire Rousseau",
    "sensorType": "Wind Speed",
    "value": 12.1,
    "unit": "m/s",
    "timestamp": "2024-02-07T06:58:00Z",
    "location": {
      "latitude": 43.611,
      "longitude": 3.8767
    },
    "notes": "Brise légère"
  },
  {
    "experimentId": "exp-036-liege-vibration-sensors",
    "studentName": "Camille Petit",
    "sensorType": "Humidity",
    "value": 32.1,
    "unit": "%",
    "timestamp": "2024-02-07T07:09:00Z",
    "location": {
      "latitude": 50.6326,
      "longitude": 5.5797
    },
    "notes": "Humidité stable"
  },
  {
    "experimentId": "exp-006-naples-pollinators",
    "studentName": "Hugo Blanc",
    "sensorType": "Temperature",
    "value": -2.6,
    "unit": "°C",
    "timestamp": "2024-02-07T08:41:00Z",
    "location": {
      "latitude": 40.8518,
      "longitude": 14.2681
    },
    "notes": "Capteur ombragé"
  },
  {
    "experimentId": "exp-041-firenze-traffic-sensors",
    "studentName": "Elena Bruno",
    "sensorType": "Light",
    "value": 23668.0,
    "unit": "lux",
    "timestamp": "2024-02-07T09:40:00Z",
    "location": {
      "latitude": 43.7696,
      "longitude": 11.2558
    },
    "notes": "Luminosité naturelle"
  },
  {
    "experimentId": "exp-017-aix-energy-perspective",
    "studentName": "Chloé Simon",
    "sensorType": "Light",
    "value": 19799.0,
    "unit": "lux",
    "timestamp": "2024-02-07T10:41:00Z",
    "location": {
      "latitude": 43.5155,
      "longitude": 5.4425
    },
    "notes": "Ombre partielle"
  },
  {
    "experimentId": "exp-036-liege-vibration-sensors",
    "studentName": "Sophie Moreau",
    "sensorType": "Air Quality Index",
    "value": 49.0,
    "unit": "AQI",
    "timestamp": "2024-02-07T11:40:00Z",
    "location": {
      "latitude": 50.6326,
      "longitude": 5.5797
    },
    "notes": "Qualité dégradée"
  },
  {
    "experimentId": "exp-055-stockholm-smart-waste",
    "studentName": "Antoine Leroy",
    "sensorType": "PM10",
    "value": 79.6,
    "unit": "μg/m³",
    "timestamp": "2024-02-07T15:00:00Z",
    "location": {
      "latitude": 59.3293,
      "longitude": 18.0686
    },
    "notes": "Particules en suspension"
  },
  {
    "experimentId": "exp-051-geneva-water-quality",
    "studentName": "Emma Girard",
    "sensorType": "Temperature",
    "value": 7.0,
    "unit": "°C",
    "timestamp": "2024-02-07T16:54:00Z",
    "location": {
      "latitude": 46.2044,
      "longitude": 6.1432
    },
    "notes": "Capteur ombragé"
  },
  {
    "experimentId": "exp-043-valencia-solar-sensors",
    "studentName": "José Pérez",
    "sensorType": "Vibration",
    "value": 3.4,
    "unit": "mm/s",
    "timestamp": "2024-02-07T17:08:00Z",
    "location": {
      "latitude": 39.4699,
      "longitude": -0.3763
    },
    "notes": "Activité sismique"
  },
  {
    "experimentId": "exp-054-vienna-heritage-sensors",
    "studentName": "Claire Rousseau",
    "sensorType": "Water pH",
    "value": 6.93,
    "unit": "pH",
    "timestamp": "2024-02-07T17:47:00Z",
    "location": {
      "latitude": 48.2082,
      "longitude": 16.3738
    },
    "notes": "Légèrement acide"
  },
  {
    "experimentId": "exp-039-roma-dust-sensors",
    "studentName": "Davide Marino",
    "sensorType": "PM2.5",
    "value": 24.7,
    "unit": "μg/m³",
    "timestamp": "2024-02-08T07:15:00Z",
    "location": {
      "latitude": 41.9028,
      "longitude": 12.4964
    },
    "notes": "Particules fines"
  },
  {
    "experimentId": "exp-010-marseille-air-quality",
    "studentName": "Sophie Moreau",
    "sensorType": "Light",
    "value": 11545.0,
    "unit": "lux",
    "timestamp": "2024-02-08T07:39:00Z",
    "location": {
      "latitude": 43.2951,
      "longitude": 5.3692
    },
    "notes": "Conditions nuageuses"
  },
  {
    "experimentId": "exp-031-lille-pressure-sensors",
    "studentName": "Claire Rousseau",
    "sensorType": "Temperature",
    "value": 5.6,
    "unit": "°C",
    "timestamp": "2024-02-08T10:08:00Z",
    "location": {
      "latitude": 50.6292,
      "longitude": 3.0573
    },
    "notes": "Mesure matinale"
  },
  {
    "experimentId": "exp-038-ghent-noise-sensors",
    "studentName": "Hugo Blanc",
    "sensorType": "Sound",
    "value": 51.7,
    "unit": "dB",
    "timestamp": "2024-02-08T11:33:00Z",
    "location": {
      "latitude": 51.0543,
      "longitude": 3.7174
    },
    "notes": "Activité urbaine"
  },
  {
    "experimentId": "exp-018-marseille-insulation",
    "studentName": "Marie Dubois",
    "sensorType": "Soil Moisture",
    "value": 28.0,
    "unit": "%",
    "timestamp": "2024-02-08T14:46:00Z",
    "location": {
      "latitude": 43.3047,
      "longitude": 5.3805
    },
    "notes": "Sol sec"
  },
  {
    "experimentId": "exp-015-madrid-energy-mix",
    "studentName": "Carmen González",
    "sensorType": "Humidity",
    "value": 74.7,
    "unit": "%",
    "timestamp": "2024-02-08T16:29:00Z",
    "location": {
      "latitude": 40.408,
      "longitude": -3.6936
    },
    "notes": "Humidité élevée"
  },
  {
    "experimentId": "exp-049-porto-energy-sensors",
    "studentName": "Léa Fournier",
    "sensorType": "CO2",
    "value": 504.0,
    "unit": "ppm",
    "timestamp": "2024-02-08T18:28:00Z",
    "location": {
      "latitude": 41.1579,
      "longitude": -8.6291
    },
    "notes": "Zone industrielle"
  },
  {
    "experimentId": "exp-031-lille-pressure-sensors",
    "studentName": "Claire Rousseau",
    "sensorType": "CO2",
    "value": 558.0,
    "unit": "ppm",
    "timestamp": "2024-02-09T09:13:00Z",
    "location": {
      "latitude": 50.6292,
      "longitude": 3.0573
    },
    "notes": "Concentration normale"
  },
  {
    "experimentId": "exp-017-aix-energy-perspective",
    "studentName": "Lucas Roux",
    "sensorType": "UV Index",
    "value": 11.0,
    "unit": "index",
    "timestamp": "2024-02-09T10:43:00Z",
    "location": {
      "latitude": 43.5155,
      "longitude": 5.4425
    },
    "notes": "Exposition modérée"
  },
  {
    "experimentId": "exp-054-vienna-heritage-sensors",
    "studentName": "Pierre Martin",
    "sensorType": "UV Index",
    "value": 10.2,
    "unit": "index",
    "timestamp": "2024-02-09T11:01:00Z",
    "location": {
      "latitude": 48.2082,
      "longitude": 16.3738
    },
    "notes": "Pic UV"
  },
  {
    "experimentId": "exp-044-sevilla-irrigation-sensors",
    "studentName": "María García",
    "sensorType": "PM10",
    "value": 16.8,
    "unit": "μg/m³",
    "timestamp": "2024-02-09T14:01:00Z",
    "location": {
      "latitude": 37.3886,
      "longitude": -5.9823
    },
    "notes": "Trafic important"
  },
  {
    "experimentId": "exp-030-strasbourg-motion-sensors",
    "studentName": "Chloé Simon",
    "sensorType": "Air Quality Index",
    "value": 71.0,
    "unit": "AQI",
    "timestamp": "2024-02-09T14:48:00Z",
    "location": {
      "latitude": 48.5734,
      "longitude": 7.7521
    },
    "notes": "Air excellent"
  },
  {
    "experimentId": "exp-043-valencia-solar-sensors",
    "studentName": "José Pérez",
    "sensorType": "Wind Speed",
    "value": 1.0,
    "unit": "m/s",
    "timestamp": "2024-02-09T18:08:00Z",
    "location": {
      "latitude": 39.4699,
      "longitude": -0.3763
    },
    "notes": "Rafales"
  },
  {
    "experimentId": "exp-047-athens-urban-heat",
    "studentName": "Lucas Roux",
    "sensorType": "Pressure",
    "value": 1018.4,
    "unit": "hPa",
    "timestamp": "2024-02-09T20:24:00Z",
    "location": {
      "latitude": 37.9838,
      "longitude": 23.7275
    },
    "notes": "Conditions normales"
  },
  {
    "experimentId": "exp-046-plovdiv-cultural-sensors",
    "studentName": "Nicolas Laurent",
    "sensorType": "PM10",
    "value": 10.9,
    "unit": "μg/m³",
    "timestamp": "2024-02-10T06:50:00Z",
    "location": {
      "latitude": 42.1354,
      "longitude": 24.7453
    },
    "notes": "Particules en suspension"
  },
  {
    "experimentId": "exp-023-madrid-birdsong-ai",
    "studentName": "José Pérez",
    "sensorType": "Motion Detection",
    "value": 29.0,
    "unit": "count",
    "timestamp": "2024-02-10T06:55:00Z",
    "location": {
      "latitude": 40.4378,
      "longitude": -3.6795
    },
    "notes": "Surveillance"
  },
  {
    "experimentId": "exp-039-roma-dust-sensors",
    "studentName": "Francesca Ferrari",
    "sensorType": "Magnetic Field",
    "value": 55.1,
    "unit": "μT",
    "timestamp": "2024-02-10T07:07:00Z",
    "location": {
      "latitude": 41.9028,
      "longitude": 12.4964
    },
    "notes": "Interférences"
  },
  {
    "experimentId": "exp-031-lille-pressure-sensors",
    "studentName": "Antoine Delcroix",
    "sensorType": "Pression atmosphérique",
    "value": 1013.2,
    "unit": "hPa",
    "timestamp": "2024-02-10T08:00:00.000Z",
    "location": {
      "latitude": 50.6292,
      "longitude": 3.0573
    },
    "notes": "Pression standard"
  },
  {
    "experimentId": "exp-006-naples-pollinators",
    "studentName": "Thomas Mercier",
    "sensorType": "Humidity",
    "value": 44.0,
    "unit": "%",
    "timestamp": "2024-02-10T08:10:00Z",
    "location": {
      "latitude": 40.8518,
      "longitude": 14.2681
    },
    "notes": "Humidité stable"
  },
  {
    "experimentId": "exp-011-paris-smart-objects",
    "studentName": "Lucas Roux",
    "sensorType": "Sound",
    "value": 56.4,
    "unit": "dB",
    "timestamp": "2024-02-10T08:13:00Z",
    "location": {
      "latitude": 48.8734,
      "longitude": 2.32
    },
    "notes": "Trafic modéré"
  },
  {
    "experimentId": "exp-024-sofia-plants-city",
    "studentName": "Thomas Mercier",
    "sensorType": "Temperature",
    "value": 7.1,
    "unit": "°C",
    "timestamp": "2024-02-10T10:01:00Z",
    "location": {
      "latitude": 42.7105,
      "longitude": 23.3238
    },
    "notes": "Mesure matinale"
  },
  {
    "experimentId": "exp-038-ghent-noise-sensors",
    "studentName": "Julien Bernard",
    "sensorType": "PM10",
    "value": 57.9,
    "unit": "μg/m³",
    "timestamp": "2024-02-10T15:25:00Z",
    "location": {
      "latitude": 51.0543,
      "longitude": 3.7174
    },
    "notes": "Conditions venteuses"
  },
  {
    "experimentId": "exp-051-geneva-water-quality",
    "studentName": "Léa Fournier",
    "sensorType": "Air Quality Index",
    "value": 36.0,
    "unit": "AQI",
    "timestamp": "2024-02-10T15:46:00Z",
    "location": {
      "latitude": 46.2044,
      "longitude": 6.1432
    },
    "notes": "Air excellent"
  },
  {
    "experimentId": "exp-044-sevilla-irrigation-sensors",
    "studentName": "María García",
    "sensorType": "UV Index",
    "value": 7.4,
    "unit": "index",
    "timestamp": "2024-02-10T17:42:00Z",
    "location": {
      "latitude": 37.3886,
      "longitude": -5.9823
    },
    "notes": "Ciel couvert"
  },
  {
    "experimentId": "exp-036-liege-vibration-sensors",
    "studentName": "Julien Bernard",
    "sensorType": "Wind Speed",
    "value": 3.7,
    "unit": "m/s",
    "timestamp": "2024-02-10T19:21:00Z",
    "location": {
      "latitude": 50.6326,
      "longitude": 5.5797
    },
    "notes": "Vent faible"
  },
  {
    "experimentId": "exp-047-athens-urban-heat",
    "studentName": "Nicolas Laurent",
    "sensorType": "Temperature",
    "value": 6.2,
    "unit": "°C",
    "timestamp": "2024-02-10T19:55:00Z",
    "location": {
      "latitude": 37.9838,
      "longitude": 23.7275
    },
    "notes": "Conditions normales"
  },
  {
    "experimentId": "exp-027-toulouse-humidity-monitoring",
    "studentName": "Chloé Simon",
    "sensorType": "Water pH",
    "value": 7.41,
    "unit": "pH",
    "timestamp": "2024-02-11T08:38:00Z",
    "location": {
      "latitude": 43.6047,
      "longitude": 1.4442
    },
    "notes": "pH optimal"
  },
  {
    "experimentId": "exp-054-vienna-heritage-sensors",
    "studentName": "Lucas Roux",
    "sensorType": "Temperature",
    "value": -2.6,
    "unit": "°C",
    "timestamp": "2024-02-11T10:10:00Z",
    "location": {
      "latitude": 48.2082,
      "longitude": 16.3738
    },
    "notes": "Pic de chaleur"
  },
  {
    "experimentId": "exp-037-antwerp-air-sensors",
    "studentName": "Sophie Moreau",
    "sensorType": "Sound",
    "value": 46.0,
    "unit": "dB",
    "timestamp": "2024-02-11T12:06:00Z",
    "location": {
      "latitude": 51.2194,
      "longitude": 4.4025
    },
    "notes": "Zone calme"
  },
  {
    "experimentId": "exp-002-marseille-data-context",
    "studentName": "Emma Girard",
    "sensorType": "UV Index",
    "value": 4.9,
    "unit": "index",
    "timestamp": "2024-02-11T13:56:00Z",
    "location": {
      "latitude": 43.2965,
      "longitude": 5.3698
    },
    "notes": "Conditions normales"
  },
  {
    "experimentId": "exp-053-amsterdam-flood-sensors",
    "studentName": "Zoe Bos",
    "sensorType": "Magnetic Field",
    "value": 34.7,
    "unit": "μT",
    "timestamp": "2024-02-11T14:08:00Z",
    "location": {
      "latitude": 52.3676,
      "longitude": 4.9041
    },
    "notes": "Interférences"
  },
  {
    "experimentId": "exp-030-strasbourg-motion-sensors",
    "studentName": "Camille Petit",
    "sensorType": "Magnetic Field",
    "value": 73.6,
    "unit": "μT",
    "timestamp": "2024-02-11T14:47:00Z",
    "location": {
      "latitude": 48.5734,
      "longitude": 7.7521
    },
    "notes": "Interférences"
  },
  {
    "experimentId": "exp-050-lisbon-waste-sensors",
    "studentName": "Antoine Leroy",
    "sensorType": "Motion Detection",
    "value": 68.0,
    "unit": "count",
    "timestamp": "2024-02-11T15:21:00Z",
    "location": {
      "latitude": 38.7223,
      "longitude": -9.1393
    },
    "notes": "Activité normale"
  },
  {
    "experimentId": "exp-053-amsterdam-flood-sensors",
    "studentName": "Sophie Janssen",
    "sensorType": "Light",
    "value": 43820.0,
    "unit": "lux",
    "timestamp": "2024-02-11T16:09:00Z",
    "location": {
      "latitude": 52.3676,
      "longitude": 4.9041
    },
    "notes": "Éclairage artificiel"
  },
  {
    "experimentId": "exp-045-varna-beach-sensors",
    "studentName": "Hugo Blanc",
    "sensorType": "Vibration",
    "value": 1.73,
    "unit": "mm/s",
    "timestamp": "2024-02-11T19:16:00Z",
    "location": {
      "latitude": 43.2141,
      "longitude": 27.9147
    },
    "notes": "Mesure de base"
  },
  {
    "experimentId": "exp-043-valencia-solar-sensors",
    "studentName": "Miguel Fernández",
    "sensorType": "Magnetic Field",
    "value": 36.2,
    "unit": "μT",
    "timestamp": "2024-02-11T19:54:00Z",
    "location": {
      "latitude": 39.4699,
      "longitude": -0.3763
    },
    "notes": "Interférences"
  },
  {
    "experimentId": "exp-004-larochelle-whisper-walls",
    "studentName": "Lucas Roux",
    "sensorType": "Energy Consumption",
    "value": 82.7,
    "unit": "kWh",
    "timestamp": "2024-02-12T09:02:00Z",
    "location": {
      "latitude": 46.1591,
      "longitude": -1.152
    },
    "notes": "Usage optimal"
  },
  {
    "experimentId": "exp-050-lisbon-waste-sensors",
    "studentName": "Manon Robert",
    "sensorType": "Magnetic Field",
    "value": 46.3,
    "unit": "μT",
    "timestamp": "2024-02-12T10:32:00Z",
    "location": {
      "latitude": 38.7223,
      "longitude": -9.1393
    },
    "notes": "Mesure de référence"
  },
  {
    "experimentId": "exp-025-aix-trees-vs-cars",
    "studentName": "Julien Bernard",
    "sensorType": "Magnetic Field",
    "value": 26.8,
    "unit": "μT",
    "timestamp": "2024-02-12T13:50:00Z",
    "location": {
      "latitude": 43.532,
      "longitude": 5.4421
    },
    "notes": "Mesure de référence"
  },
  {
    "experimentId": "exp-043-valencia-solar-sensors",
    "studentName": "Ana Rodríguez",
    "sensorType": "Magnetic Field",
    "value": 47.5,
    "unit": "μT",
    "timestamp": "2024-02-12T15:00:00Z",
    "location": {
      "latitude": 39.4699,
      "longitude": -0.3763
    },
    "notes": "Conditions normales"
  },
  {
    "experimentId": "exp-049-porto-energy-sensors",
    "studentName": "Pierre Martin",
    "sensorType": "Sound",
    "value": 80.8,
    "unit": "dB",
    "timestamp": "2024-02-12T15:11:00Z",
    "location": {
      "latitude": 41.1579,
      "longitude": -8.6291
    },
    "notes": "Bruit ambiant"
  },
  {
    "experimentId": "exp-045-varna-beach-sensors",
    "studentName": "Chloé Simon",
    "sensorType": "Soil Moisture",
    "value": 41.2,
    "unit": "%",
    "timestamp": "2024-02-12T15:16:00Z",
    "location": {
      "latitude": 43.2141,
      "longitude": 27.9147
    },
    "notes": "Sol sec"
  },
  {
    "experimentId": "exp-026-lyon-temp-sensors",
    "studentName": "Emma Girard",
    "sensorType": "Magnetic Field",
    "value": 52.0,
    "unit": "μT",
    "timestamp": "2024-02-12T15:36:00Z",
    "location": {
      "latitude": 45.764,
      "longitude": 4.8357
    },
    "notes": "Variations naturelles"
  },
  {
    "experimentId": "exp-014-naples-negawatt",
    "studentName": "Nicolas Laurent",
    "sensorType": "Sound",
    "value": 45.8,
    "unit": "dB",
    "timestamp": "2024-02-12T15:45:00Z",
    "location": {
      "latitude": 40.8359,
      "longitude": 14.2488
    },
    "notes": "Zone calme"
  },
  {
    "experimentId": "exp-020-larochelle-chatbot",
    "studentName": "Claire Rousseau",
    "sensorType": "CO2",
    "value": 582.0,
    "unit": "ppm",
    "timestamp": "2024-02-12T17:05:00Z",
    "location": {
      "latitude": 46.1574,
      "longitude": -1.1506
    },
    "notes": "Émissions locales"
  },
  {
    "experimentId": "exp-053-amsterdam-flood-sensors",
    "studentName": "Finn de Wit",
    "sensorType": "CO2",
    "value": 818.0,
    "unit": "ppm",
    "timestamp": "2024-02-13T06:44:00Z",
    "location": {
      "latitude": 52.3676,
      "longitude": 4.9041
    },
    "notes": "Pic urbain"
  },
  {
    "experimentId": "exp-025-aix-trees-vs-cars",
    "studentName": "Manon Robert",
    "sensorType": "Humidity",
    "value": 88.8,
    "unit": "%",
    "timestamp": "2024-02-13T09:55:00Z",
    "location": {
      "latitude": 43.532,
      "longitude": 5.4421
    },
    "notes": "Humidité stable"
  },
  {
    "experimentId": "exp-035-clermont-uv-sensors",
    "studentName": "Lucas Roux",
    "sensorType": "NO2",
    "value": 49.6,
    "unit": "μg/m³",
    "timestamp": "2024-02-13T09:59:00Z",
    "location": {
      "latitude": 45.7772,
      "longitude": 3.087
    },
    "notes": "Émissions véhicules"
  },
  {
    "experimentId": "exp-032-montpellier-light-sensors",
    "studentName": "Antoine Leroy",
    "sensorType": "Water pH",
    "value": 7.91,
    "unit": "pH",
    "timestamp": "2024-02-13T10:59:00Z",
    "location": {
      "latitude": 43.611,
      "longitude": 3.8767
    },
    "notes": "Légèrement acide"
  },
  {
    "experimentId": "exp-047-athens-urban-heat",
    "studentName": "Claire Rousseau",
    "sensorType": "PM2.5",
    "value": 18.9,
    "unit": "μg/m³",
    "timestamp": "2024-02-13T11:55:00Z",
    "location": {
      "latitude": 37.9838,
      "longitude": 23.7275
    },
    "notes": "Pollution modérée"
  },
  {
    "experimentId": "exp-038-ghent-noise-sensors",
    "studentName": "Léa Fournier",
    "sensorType": "CO2",
    "value": 955.0,
    "unit": "ppm",
    "timestamp": "2024-02-13T12:46:00Z",
    "location": {
      "latitude": 51.0543,
      "longitude": 3.7174
    },
    "notes": "Zone industrielle"
  },
  {
    "experimentId": "exp-053-amsterdam-flood-sensors",
    "studentName": "Sophie Janssen",
    "sensorType": "Vibration",
    "value": 4.68,
    "unit": "mm/s",
    "timestamp": "2024-02-13T13:43:00Z",
    "location": {
      "latitude": 52.3676,
      "longitude": 4.9041
    },
    "notes": "Surveillance continue"
  },
  {
    "experimentId": "exp-052-zurich-bike-sensors",
    "studentName": "Julien Bernard",
    "sensorType": "PM2.5",
    "value": 36.4,
    "unit": "μg/m³",
    "timestamp": "2024-02-13T14:24:00Z",
    "location": {
      "latitude": 47.3769,
      "longitude": 8.5417
    },
    "notes": "Conditions venteuses"
  },
  {
    "experimentId": "exp-032-montpellier-light-sensors",
    "studentName": "Thomas Mercier",
    "sensorType": "Pressure",
    "value": 997.3,
    "unit": "hPa",
    "timestamp": "2024-02-13T14:58:00Z",
    "location": {
      "latitude": 43.611,
      "longitude": 3.8767
    },
    "notes": "Dépression"
  },
  {
    "experimentId": "exp-054-vienna-heritage-sensors",
    "studentName": "Manon Robert",
    "sensorType": "UV Index",
    "value": 6.8,
    "unit": "index",
    "timestamp": "2024-02-13T15:14:00Z",
    "location": {
      "latitude": 48.2082,
      "longitude": 16.3738
    },
    "notes": "Exposition modérée"
  },
  {
    "experimentId": "exp-011-paris-smart-objects",
    "studentName": "Léa Fournier",
    "sensorType": "Sound",
    "value": 82.3,
    "unit": "dB",
    "timestamp": "2024-02-13T15:15:00Z",
    "location": {
      "latitude": 48.8734,
      "longitude": 2.32
    },
    "notes": "Pic sonore"
  },
  {
    "experimentId": "exp-039-roma-dust-sensors",
    "studentName": "Francesca Ferrari",
    "sensorType": "Vibration",
    "value": 3.09,
    "unit": "mm/s",
    "timestamp": "2024-02-13T16:24:00Z",
    "location": {
      "latitude": 41.9028,
      "longitude": 12.4964
    },
    "notes": "Surveillance continue"
  },
  {
    "experimentId": "exp-007-madrid-sleep-battle",
    "studentName": "Miguel Fernández",
    "sensorType": "Vibration",
    "value": 3.49,
    "unit": "mm/s",
    "timestamp": "2024-02-13T17:20:00Z",
    "location": {
      "latitude": 40.4168,
      "longitude": -3.7038
    },
    "notes": "Vibrations faibles"
  },
  {
    "experimentId": "exp-029-nice-seismic-network",
    "studentName": "Antoine Leroy",
    "sensorType": "Magnetic Field",
    "value": 53.0,
    "unit": "μT",
    "timestamp": "2024-02-13T20:15:00Z",
    "location": {
      "latitude": 43.7102,
      "longitude": 7.262
    },
    "notes": "Conditions normales"
  },
  {
    "experimentId": "exp-047-athens-urban-heat",
    "studentName": "Léa Fournier",
    "sensorType": "Temperature",
    "value": -0.2,
    "unit": "°C",
    "timestamp": "2024-02-14T06:49:00Z",
    "location": {
      "latitude": 37.9838,
      "longitude": 23.7275
    },
    "notes": "Conditions normales"
  },
  {
    "experimentId": "exp-045-varna-beach-sensors",
    "studentName": "Camille Petit",
    "sensorType": "PM10",
    "value": 50.0,
    "unit": "μg/m³",
    "timestamp": "2024-02-14T09:19:00Z",
    "location": {
      "latitude": 43.2141,
      "longitude": 27.9147
    },
    "notes": "Trafic important"
  },
  {
    "experimentId": "exp-007-madrid-sleep-battle",
    "studentName": "José Pérez",
    "sensorType": "Wind Speed",
    "value": 11.3,
    "unit": "m/s",
    "timestamp": "2024-02-14T09:41:00Z",
    "location": {
      "latitude": 40.4168,
      "longitude": -3.7038
    },
    "notes": "Vent faible"
  },
  {
    "experimentId": "exp-041-firenze-traffic-sensors",
    "studentName": "Elena Bruno",
    "sensorType": "Soil Moisture",
    "value": 50.2,
    "unit": "%",
    "timestamp": "2024-02-14T12:33:00Z",
    "location": {
      "latitude": 43.7696,
      "longitude": 11.2558
    },
    "notes": "Conditions optimales"
  },
  {
    "experimentId": "exp-042-barcelona-wind-sensors",
    "studentName": "Francisco Torres",
    "sensorType": "Energy Consumption",
    "value": 77.4,
    "unit": "kWh",
    "timestamp": "2024-02-14T16:09:00Z",
    "location": {
      "latitude": 41.3851,
      "longitude": 2.1734
    },
    "notes": "Usage optimal"
  },
  {
    "experimentId": "exp-014-naples-negawatt",
    "studentName": "Julien Bernard",
    "sensorType": "UV Index",
    "value": 9.5,
    "unit": "index",
    "timestamp": "2024-02-14T18:16:00Z",
    "location": {
      "latitude": 40.8359,
      "longitude": 14.2488
    },
    "notes": "Protection requise"
  },
  {
    "experimentId": "exp-020-larochelle-chatbot",
    "studentName": "Emma Girard",
    "sensorType": "Sound",
    "value": 49.9,
    "unit": "dB",
    "timestamp": "2024-02-14T18:48:00Z",
    "location": {
      "latitude": 46.1574,
      "longitude": -1.1506
    },
    "notes": "Zone calme"
  },
  {
    "experimentId": "exp-039-roma-dust-sensors",
    "studentName": "Francesca Ferrari",
    "sensorType": "Wind Speed",
    "value": 12.0,
    "unit": "m/s",
    "timestamp": "2024-02-14T19:42:00Z",
    "location": {
      "latitude": 41.9028,
      "longitude": 12.4964
    },
    "notes": "Conditions calmes"
  },
  {
    "experimentId": "exp-053-amsterdam-flood-sensors",
    "studentName": "Lisa Visser",
    "sensorType": "Sound",
    "value": 52.7,
    "unit": "dB",
    "timestamp": "2024-02-15T06:59:00Z",
    "location": {
      "latitude": 52.3676,
      "longitude": 4.9041
    },
    "notes": "Zone calme"
  },
  {
    "experimentId": "exp-032-montpellier-light-sensors",
    "studentName": "Antoine Leroy",
    "sensorType": "Light",
    "value": 6977.0,
    "unit": "lux",
    "timestamp": "2024-02-15T07:31:00Z",
    "location": {
      "latitude": 43.611,
      "longitude": 3.8767
    },
    "notes": "Ombre partielle"
  },
  {
    "experimentId": "exp-034-rennes-magnetic-sensors",
    "studentName": "Bastien Guillou",
    "sensorType": "Champ magnétique",
    "value": 450,
    "unit": "nT",
    "timestamp": "2024-02-15T08:00:00.000Z",
    "location": {
      "latitude": 48.1173,
      "longitude": -1.6778
    },
    "notes": "Voiture passage"
  },
  {
    "experimentId": "exp-034-rennes-magnetic-sensors",
    "studentName": "Leila Cheradi",
    "sensorType": "Champ magnétique",
    "value": 890,
    "unit": "nT",
    "timestamp": "2024-02-15T08:05:00.000Z",
    "location": {
      "latitude": 48.1173,
      "longitude": -1.6778
    },
    "notes": "Camion passage"
  },
  {
    "experimentId": "exp-050-lisbon-waste-sensors",
    "studentName": "Antoine Leroy",
    "sensorType": "PM2.5",
    "value": 26.7,
    "unit": "μg/m³",
    "timestamp": "2024-02-15T14:32:00Z",
    "location": {
      "latitude": 38.7223,
      "longitude": -9.1393
    },
    "notes": "Pollution modérée"
  },
  {
    "experimentId": "exp-022-naples-waste-sorting",
    "studentName": "Chloé Simon",
    "sensorType": "Sound",
    "value": 69.4,
    "unit": "dB",
    "timestamp": "2024-02-15T16:19:00Z",
    "location": {
      "latitude": 40.8467,
      "longitude": 14.2577
    },
    "notes": "Bruit ambiant"
  },
  {
    "experimentId": "exp-031-lille-pressure-sensors",
    "studentName": "Antoine Leroy",
    "sensorType": "Energy Consumption",
    "value": 162.8,
    "unit": "kWh",
    "timestamp": "2024-02-15T16:28:00Z",
    "location": {
      "latitude": 50.6292,
      "longitude": 3.0573
    },
    "notes": "Consommation élevée"
  },
  {
    "experimentId": "exp-018-marseille-insulation",
    "studentName": "Hugo Blanc",
    "sensorType": "Vibration",
    "value": 2.66,
    "unit": "mm/s",
    "timestamp": "2024-02-15T19:08:00Z",
    "location": {
      "latitude": 43.3047,
      "longitude": 5.3805
    },
    "notes": "Surveillance continue"
  },
  {
    "experimentId": "exp-030-strasbourg-motion-sensors",
    "studentName": "Julien Bernard",
    "sensorType": "Water Temperature",
    "value": 9.5,
    "unit": "°C",
    "timestamp": "2024-02-15T19:28:00Z",
    "location": {
      "latitude": 48.5734,
      "longitude": 7.7521
    },
    "notes": "Conditions normales"
  },
  {
    "experimentId": "exp-018-marseille-insulation",
    "studentName": "Thomas Mercier",
    "sensorType": "Energy Consumption",
    "value": 61.1,
    "unit": "kWh",
    "timestamp": "2024-02-16T07:15:00Z",
    "location": {
      "latitude": 43.3047,
      "longitude": 5.3805
    },
    "notes": "Pic énergétique"
  },
  {
    "experimentId": "exp-016-sofia-smart-lighting",
    "studentName": "Marie Dubois",
    "sensorType": "CO2",
    "value": 513.0,
    "unit": "ppm",
    "timestamp": "2024-02-16T10:15:00Z",
    "location": {
      "latitude": 42.695,
      "longitude": 23.3253
    },
    "notes": "Émissions locales"
  },
  {
    "experimentId": "exp-005-bruxelles-co2-sensors",
    "studentName": "Emma Girard",
    "sensorType": "Energy Consumption",
    "value": 176.1,
    "unit": "kWh",
    "timestamp": "2024-02-16T12:45:00Z",
    "location": {
      "latitude": 50.8503,
      "longitude": 4.3517
    },
    "notes": "Usage optimal"
  },
  {
    "experimentId": "exp-022-naples-waste-sorting",
    "studentName": "Marie Dubois",
    "sensorType": "Water Temperature",
    "value": 21.4,
    "unit": "°C",
    "timestamp": "2024-02-16T13:07:00Z",
    "location": {
      "latitude": 40.8467,
      "longitude": 14.2577
    },
    "notes": "Variation saisonnière"
  },
  {
    "experimentId": "exp-038-ghent-noise-sensors",
    "studentName": "Chloé Simon",
    "sensorType": "Humidity",
    "value": 23.7,
    "unit": "%",
    "timestamp": "2024-02-16T14:28:00Z",
    "location": {
      "latitude": 51.0543,
      "longitude": 3.7174
    },
    "notes": "Humidité stable"
  },
  {
    "experimentId": "exp-037-antwerp-air-sensors",
    "studentName": "Chloé Simon",
    "sensorType": "Wind Speed",
    "value": 14.2,
    "unit": "m/s",
    "timestamp": "2024-02-16T20:49:00Z",
    "location": {
      "latitude": 51.2194,
      "longitude": 4.4025
    },
    "notes": "Vent modéré"
  },
  {
    "experimentId": "exp-026-lyon-temp-sensors",
    "studentName": "Léa Fournier",
    "sensorType": "PM2.5",
    "value": 23.3,
    "unit": "μg/m³",
    "timestamp": "2024-02-17T06:19:00Z",
    "location": {
      "latitude": 45.764,
      "longitude": 4.8357
    },
    "notes": "Trafic dense"
  },
  {
    "experimentId": "exp-021-bruxelles-ai-datawalk",
    "studentName": "Emma Girard",
    "sensorType": "Temperature",
    "value": 0.6,
    "unit": "°C",
    "timestamp": "2024-02-17T06:57:00Z",
    "location": {
      "latitude": 50.8798,
      "longitude": 4.4142
    },
    "notes": "Capteur ombragé"
  },
  {
    "experimentId": "exp-017-aix-energy-perspective",
    "studentName": "Claire Rousseau",
    "sensorType": "Water Temperature",
    "value": 19.8,
    "unit": "°C",
    "timestamp": "2024-02-17T13:53:00Z",
    "location": {
      "latitude": 43.5155,
      "longitude": 5.4425
    },
    "notes": "Conditions normales"
  },
  {
    "experimentId": "exp-043-valencia-solar-sensors",
    "studentName": "Isabel Cruz",
    "sensorType": "NO2",
    "value": 52.3,
    "unit": "μg/m³",
    "timestamp": "2024-02-17T15:54:00Z",
    "location": {
      "latitude": 39.4699,
      "longitude": -0.3763
    },
    "notes": "Pollution urbaine"
  },
  {
    "experimentId": "exp-017-aix-energy-perspective",
    "studentName": "Léa Fournier",
    "sensorType": "PM2.5",
    "value": 5.6,
    "unit": "μg/m³",
    "timestamp": "2024-02-17T16:10:00Z",
    "location": {
      "latitude": 43.5155,
      "longitude": 5.4425
    },
    "notes": "Trafic dense"
  },
  {
    "experimentId": "exp-045-varna-beach-sensors",
    "studentName": "Thomas Mercier",
    "sensorType": "Soil Moisture",
    "value": 24.7,
    "unit": "%",
    "timestamp": "2024-02-18T07:32:00Z",
    "location": {
      "latitude": 43.2141,
      "longitude": 27.9147
    },
    "notes": "Après arrosage"
  },
  {
    "experimentId": "exp-049-porto-energy-sensors",
    "studentName": "Emma Girard",
    "sensorType": "Pressure",
    "value": 1000.0,
    "unit": "hPa",
    "timestamp": "2024-02-18T08:15:00Z",
    "location": {
      "latitude": 41.1579,
      "longitude": -8.6291
    },
    "notes": "Anticyclone"
  },
  {
    "experimentId": "exp-036-liege-vibration-sensors",
    "studentName": "Camille Petit",
    "sensorType": "CO2",
    "value": 521.0,
    "unit": "ppm",
    "timestamp": "2024-02-18T11:22:00Z",
    "location": {
      "latitude": 50.6326,
      "longitude": 5.5797
    },
    "notes": "Pic urbain"
  },
  {
    "experimentId": "exp-006-naples-pollinators",
    "studentName": "Camille Petit",
    "sensorType": "PM2.5",
    "value": 34.9,
    "unit": "μg/m³",
    "timestamp": "2024-02-18T14:21:00Z",
    "location": {
      "latitude": 40.8518,
      "longitude": 14.2681
    },
    "notes": "Particules fines"
  },
  {
    "experimentId": "exp-053-amsterdam-flood-sensors",
    "studentName": "Liam van der Berg",
    "sensorType": "CO2",
    "value": 469.0,
    "unit": "ppm",
    "timestamp": "2024-02-18T15:05:00Z",
    "location": {
      "latitude": 52.3676,
      "longitude": 4.9041
    },
    "notes": "Concentration normale"
  },
  {
    "experimentId": "exp-029-nice-seismic-network",
    "studentName": "Pierre Martin",
    "sensorType": "PM2.5",
    "value": 17.8,
    "unit": "μg/m³",
    "timestamp": "2024-02-18T15:25:00Z",
    "location": {
      "latitude": 43.7102,
      "longitude": 7.262
    },
    "notes": "Air propre"
  },
  {
    "experimentId": "exp-011-paris-smart-objects",
    "studentName": "Sophie Moreau",
    "sensorType": "Magnetic Field",
    "value": 59.1,
    "unit": "μT",
    "timestamp": "2024-02-18T16:06:00Z",
    "location": {
      "latitude": 48.8734,
      "longitude": 2.32
    },
    "notes": "Variations naturelles"
  },
  {
    "experimentId": "exp-047-athens-urban-heat",
    "studentName": "Sophie Moreau",
    "sensorType": "Humidity",
    "value": 60.3,
    "unit": "%",
    "timestamp": "2024-02-18T20:40:00Z",
    "location": {
      "latitude": 37.9838,
      "longitude": 23.7275
    },
    "notes": "Après précipitations"
  },
  {
    "experimentId": "exp-016-sofia-smart-lighting",
    "studentName": "Marie Dubois",
    "sensorType": "Soil Moisture",
    "value": 56.8,
    "unit": "%",
    "timestamp": "2024-02-19T06:33:00Z",
    "location": {
      "latitude": 42.695,
      "longitude": 23.3253
    },
    "notes": "Conditions optimales"
  },
  {
    "experimentId": "exp-048-thessaloniki-air-quality",
    "studentName": "Lucas Roux",
    "sensorType": "Motion Detection",
    "value": 93.0,
    "unit": "count",
    "timestamp": "2024-02-19T08:12:00Z",
    "location": {
      "latitude": 40.6401,
      "longitude": 22.9444
    },
    "notes": "Surveillance"
  },
  {
    "experimentId": "exp-039-roma-dust-sensors",
    "studentName": "Sara Ricci",
    "sensorType": "PM2.5",
    "value": 10.5,
    "unit": "μg/m³",
    "timestamp": "2024-02-19T09:44:00Z",
    "location": {
      "latitude": 41.9028,
      "longitude": 12.4964
    },
    "notes": "Pollution modérée"
  },
  {
    "experimentId": "exp-040-milano-energy-sensors",
    "studentName": "Matteo Conti",
    "sensorType": "Vibration",
    "value": 0.12,
    "unit": "mm/s",
    "timestamp": "2024-02-19T11:15:00Z",
    "location": {
      "latitude": 45.4642,
      "longitude": 9.19
    },
    "notes": "Activité sismique"
  },
  {
    "experimentId": "exp-032-montpellier-light-sensors",
    "studentName": "Antoine Leroy",
    "sensorType": "Wind Speed",
    "value": 9.1,
    "unit": "m/s",
    "timestamp": "2024-02-19T11:28:00Z",
    "location": {
      "latitude": 43.611,
      "longitude": 3.8767
    },
    "notes": "Vent modéré"
  },
  {
    "experimentId": "exp-023-madrid-birdsong-ai",
    "studentName": "Carmen González",
    "sensorType": "UV Index",
    "value": 3.8,
    "unit": "index",
    "timestamp": "2024-02-19T13:06:00Z",
    "location": {
      "latitude": 40.4378,
      "longitude": -3.6795
    },
    "notes": "Exposition modérée"
  },
  {
    "experimentId": "exp-037-antwerp-air-sensors",
    "studentName": "Lucas Roux",
    "sensorType": "Water pH",
    "value": 6.95,
    "unit": "pH",
    "timestamp": "2024-02-19T19:37:00Z",
    "location": {
      "latitude": 51.2194,
      "longitude": 4.4025
    },
    "notes": "Mesure de routine"
  },
  {
    "experimentId": "exp-036-liege-vibration-sensors",
    "studentName": "Nicolas Laurent",
    "sensorType": "Energy Consumption",
    "value": 132.6,
    "unit": "kWh",
    "timestamp": "2024-02-19T19:51:00Z",
    "location": {
      "latitude": 50.6326,
      "longitude": 5.5797
    },
    "notes": "Consommation normale"
  },
  {
    "experimentId": "exp-036-liege-vibration-sensors",
    "studentName": "Manon Robert",
    "sensorType": "Light",
    "value": 3641.0,
    "unit": "lux",
    "timestamp": "2024-02-19T19:52:00Z",
    "location": {
      "latitude": 50.6326,
      "longitude": 5.5797
    },
    "notes": "Conditions nuageuses"
  },
  {
    "experimentId": "exp-034-rennes-magnetic-sensors",
    "studentName": "Antoine Leroy",
    "sensorType": "Magnetic Field",
    "value": 22.5,
    "unit": "μT",
    "timestamp": "2024-02-19T19:53:00Z",
    "location": {
      "latitude": 48.1173,
      "longitude": -1.6778
    },
    "notes": "Variations naturelles"
  },
  {
    "experimentId": "exp-015-madrid-energy-mix",
    "studentName": "José Pérez",
    "sensorType": "Vibration",
    "value": 2.43,
    "unit": "mm/s",
    "timestamp": "2024-02-19T20:58:00Z",
    "location": {
      "latitude": 40.408,
      "longitude": -3.6936
    },
    "notes": "Activité sismique"
  },
  {
    "experimentId": "exp-008-sofia-decibel-detectives",
    "studentName": "Sophie Moreau",
    "sensorType": "NO2",
    "value": 17.9,
    "unit": "μg/m³",
    "timestamp": "2024-02-19T20:59:00Z",
    "location": {
      "latitude": 42.6977,
      "longitude": 23.3219
    },
    "notes": "Pic de trafic"
  },
  {
    "experimentId": "exp-037-antwerp-air-sensors",
    "studentName": "Thomas Mercier",
    "sensorType": "Water pH",
    "value": 7.62,
    "unit": "pH",
    "timestamp": "2024-02-20T10:48:00Z",
    "location": {
      "latitude": 51.2194,
      "longitude": 4.4025
    },
    "notes": "pH optimal"
  },